City_ID,City,Lat,Lng,Max Temp,Humidity,Cloudiness,Wind Speed,Country,Date
0,chhota udepur,22.3167,74.0167,300.25,32,30,1.27,IN,1681949220
1,rosarno,38.4841,15.979,286.71,72,37,2.32,IT,1681949220
2,grytviken,-54.2811,-36.5092,276.82,95,100,1.7,GS,1681949016
3,waitangi,-43.9535,-176.5597,290.83,89,94,4.02,NZ,1681949012
4,adamstown,-25.066,-130.1015,297.56,76,96,0.87,PN,1681949007
5,santa ana,33.7456,-117.8678,296.15,47,20,6.17,US,1681949215
6,puerto aysen,-45.4,-72.7,285.64,99,100,1.98,CL,1681949223
7,salinas,36.6777,-121.6555,293.14,56,0,6.17,US,1681949166
8,greenville,35.6127,-77.3663,296.55,50,0,0.0,US,1681949224
9,port-aux-francais,-49.35,70.2167,277.98,68,18,15.5,TF,1681948984
10,ilulissat,69.2167,-51.1,268.16,80,100,1.54,GL,1681948991
11,port lincoln,-34.7333,135.8667,289.71,57,94,2.93,AU,1681949226
12,lompoc,34.6391,-120.4579,295.81,64,20,11.18,US,1681949028
13,bilibino,68.0546,166.4372,271.96,84,100,1.43,RU,1681949037
14,las margaritas,16.3167,-91.9833,296.68,40,72,5.19,MX,1681949229
15,tiksi,71.6872,128.8694,252.95,99,100,2.04,RU,1681948986
16,vorgashor,67.5833,63.95,265.73,97,100,3.67,RU,1681949041
17,georgetown,5.4112,100.3354,299.11,94,40,2.68,MY,1681949129
18,kapuskasing,49.4169,-82.4331,272.05,88,100,3.62,CA,1681949232
19,blackmans bay,-43.0167,147.3167,287.44,77,97,3.29,AU,1681948999
20,port-cartier,50.0334,-66.8654,274.68,97,100,0.72,CA,1681949233
21,invercargill,-46.4,168.35,287.87,69,90,1.79,NZ,1681949015
22,olonkinbyen,70.9221,-8.7187,275.47,87,58,10.9,SJ,1681949041
23,udachny,66.4167,112.4,262.29,72,99,1.91,RU,1681949179
24,vega de alatorre,20.0333,-96.6333,299.61,85,60,3.12,MX,1681949235
25,namibe,-15.1961,12.1522,298.31,74,73,1.94,AO,1681949024
26,chonchi,-42.6128,-73.8092,286.71,99,95,0.8,CL,1681949237
27,west island,-12.1568,96.8225,299.14,94,75,5.66,CC,1681949017
28,san antonio de pale,-1.4014,5.6325,301.35,82,99,4.32,GQ,1681949121
29,bredasdorp,-34.5322,20.0403,289.41,67,100,2.12,ZA,1681949026
30,margaret river,-33.95,115.0667,287.4,57,0,3.55,AU,1681949006
31,talnakh,69.4865,88.3972,258.82,96,95,3.31,RU,1681949105
32,iqaluit,63.7506,-68.5145,266.0,85,100,0.0,CA,1681948923
33,alofi,-19.0595,-169.9187,299.58,78,100,2.33,NU,1681949241
34,papatowai,-46.5619,169.4708,288.34,69,63,0.51,NZ,1681949020
35,constantia,44.1833,28.65,283.54,94,100,5.86,RO,1681949243
36,waddan,29.1614,16.139,293.67,24,0,5.36,LY,1681949245
37,ancud,-41.8697,-73.8203,285.81,96,92,1.93,CL,1681949246
38,san sebastian de la gomera,28.0916,-17.1133,292.8,72,0,1.03,ES,1681949246
39,tamanrasset,22.785,5.5228,293.1,12,0,0.0,DZ,1681949247
40,ribeira grande,38.5167,-28.7,285.25,73,70,2.24,PT,1681949067
41,stanley,54.868,-1.6985,279.2,94,0,2.06,GB,1681949027
42,kencong,-8.2833,113.3667,298.78,85,73,0.95,ID,1681949250
43,kone,-21.0595,164.8658,301.42,63,0,1.02,NC,1681949201
44,nar'yan-mar,67.6713,53.087,273.06,97,100,5.83,RU,1681949251
45,tazacorte,28.629,-17.9293,292.69,86,100,2.57,ES,1681949252
46,codrington,-38.2667,141.9667,287.83,75,92,4.26,AU,1681949065
47,codajas,-3.8367,-62.0569,298.18,90,99,1.29,BR,1681948996
48,dhromolaxia,34.8755,33.5868,290.96,88,0,6.69,CY,1681949118
49,talcahuano,-36.7167,-73.1167,287.97,88,0,1.54,CL,1681949255
50,hawaiian paradise park,19.5933,-154.9731,299.76,90,40,6.69,US,1681949117
51,albany,42.6001,-73.9662,277.8,69,93,3.84,US,1681948669
52,palompon,11.0508,124.3843,301.81,72,77,1.59,PH,1681949256
53,aykhal,66.0,111.5,262.65,96,99,2.23,RU,1681949257
54,sassandra,4.95,-6.0833,299.32,90,97,2.46,CI,1681949257
55,hovd,48.0056,91.6419,270.07,31,0,3.48,MN,1681949194
56,jamestown,42.097,-79.2353,279.95,61,0,4.12,US,1681948981
57,oroqen zizhiqi,50.5667,123.7167,272.42,87,100,4.37,CN,1681949258
58,yuktae-dong,40.0247,128.1597,286.39,64,100,5.37,KP,1681949259
59,linxia chengguanzhen,35.6003,103.2064,281.07,32,29,1.37,CN,1681949259
60,touros,-5.1989,-35.4608,299.49,83,97,4.14,BR,1681949260
61,squamish,49.7014,-123.1512,284.66,67,97,3.58,CA,1681949261
62,atafu village,-8.5421,-172.5159,301.51,69,96,1.39,TK,1681949047
63,bontang,0.1333,117.5,299.82,83,98,0.76,ID,1681949262
64,la palma,33.8464,-118.0467,296.29,46,20,6.17,US,1681949262
65,phan thiet,10.9333,108.1,300.47,83,87,2.59,VN,1681949263
66,qarauyl,48.9451,79.255,266.58,69,0,1.74,KZ,1681949263
67,bethel,41.3712,-73.414,285.34,56,0,1.54,US,1681948986
68,lebu,-37.6167,-73.65,285.73,94,78,6.55,CL,1681949002
69,hasaki,35.7333,140.8333,293.27,88,100,1.92,JP,1681949051
70,la passe,45.5549,-0.8967,286.28,87,1,4.01,FR,1681949168
71,punta arenas,-53.15,-70.9167,279.21,75,20,10.8,CL,1681948954
72,karratha,-20.7377,116.8463,297.27,34,1,9.73,AU,1681949059
73,ushuaia,-54.8,-68.3,278.96,70,75,10.8,AR,1681948905
74,la ronge,55.1001,-105.2842,272.98,78,100,5.37,CA,1681949266
75,puerto natales,-51.7236,-72.4875,281.04,81,78,4.62,CL,1681948935
76,hampton bays,40.869,-72.5176,284.36,71,63,2.32,US,1681949238
77,tumaco,1.7986,-78.8156,299.61,83,98,3.07,CO,1681949268
78,thompson,55.7435,-97.8558,274.24,47,75,6.17,CA,1681948820
79,puerto francisco de orellana,-0.4667,-76.9667,296.36,96,88,0.75,EC,1681948992
80,leava,-14.3,-178.1667,300.83,77,100,5.06,WF,1681949269
81,puerto madero,14.7208,-92.4215,304.26,70,20,4.12,MX,1681949269
82,tshabong,-26.05,22.45,291.67,26,7,5.16,BW,1681949270
83,qaqortoq,60.7167,-46.0333,272.89,92,83,0.93,GL,1681949044
84,turbat,26.0023,63.044,298.77,50,72,1.28,PK,1681949272
85,pandan,14.0453,124.1694,301.01,84,14,3.13,PH,1681949272
86,longyearbyen,78.2186,15.6401,262.06,79,20,2.06,SJ,1681949047
87,carnarvon,-24.8667,113.6333,296.42,44,78,7.26,AU,1681949015
88,baile herculane,44.8797,22.4125,280.99,95,69,2.07,RO,1681949274
89,santana,-0.0583,-51.1817,300.25,89,0,3.6,BR,1681949274
90,richards bay,-28.783,32.0377,293.07,84,0,5.7,ZA,1681949275
91,kapit,2.0167,112.9333,298.57,91,83,0.22,MY,1681949275
92,noosa heads,-26.3833,153.15,297.65,62,50,9.15,AU,1681949060
93,shache,38.4167,77.2406,284.16,38,100,8.5,CN,1681949089
94,mount gambier,-37.8333,140.7667,288.51,74,99,2.82,AU,1681949029
95,siwa oasis,29.2041,25.5195,290.91,49,0,4.35,EG,1681949278
96,galliano,29.4422,-90.2992,297.15,60,0,2.57,US,1681949279
97,nova xavantina,-14.6667,-52.35,296.57,93,94,1.39,BR,1681949023
98,fort bragg,35.139,-79.006,299.06,35,0,2.57,US,1681949199
99,port alfred,-33.5906,26.891,297.97,46,93,4.1,ZA,1681949063
100,shendi,16.6915,33.4341,301.01,9,1,4.87,SD,1681949280
101,kailua-kona,19.6406,-155.9956,296.64,95,100,13.89,US,1681949082
102,belmonte,-15.8631,-38.8828,300.37,89,17,3.96,BR,1681949281
103,luau,-10.7073,22.2247,290.81,86,40,1.32,AO,1681949282
104,college,64.8569,-147.8028,277.12,41,20,0.0,US,1681949010
105,nemuro,43.3236,145.575,278.61,85,75,2.69,JP,1681949189
106,edinburgh of the seven seas,-37.0676,-12.3116,291.53,81,100,11.54,SH,1681948997
107,the pas,53.8251,-101.2541,272.02,74,100,6.27,CA,1681949285
108,chinde,26.8418,88.0763,292.06,33,1,2.42,NP,1681949030
109,coquimbo,-29.9533,-71.3436,288.0,82,0,3.09,CL,1681949035
110,klaksvik,62.2266,-6.589,279.66,80,4,4.89,FO,1681949287
111,yellowknife,62.456,-114.3525,278.46,42,20,4.63,CA,1681948810
112,ndelele,4.0333,14.9333,294.5,90,98,0.9,CM,1681949289
113,keflavik,64.0049,-22.5624,281.1,100,100,9.77,IS,1681949071
114,fortuna,40.5982,-124.1573,287.0,60,28,2.24,US,1681949098
115,saint-louis,16.3333,-15.0,298.86,34,34,5.02,SN,1681949291
116,castlegar,49.2998,-117.6689,280.64,57,100,0.84,CA,1681949292
117,mitu,1.1983,-70.1733,296.82,96,92,1.12,CO,1681949292
118,pontes e lacerda,-15.2261,-59.3353,295.39,98,100,1.93,BR,1681949293
119,road town,18.4167,-64.6167,299.2,73,40,3.09,VG,1681949018
120,magadan,59.5667,150.8,273.85,74,99,5.33,RU,1681948998
121,lerwick,60.1545,-1.1494,280.15,82,17,3.18,GB,1681949295
122,kristiansund,63.1115,7.732,278.18,93,100,0.51,NO,1681949297
123,saipan,15.1355,145.701,303.54,100,100,8.75,MP,1681949298
124,winkler,49.1817,-97.941,274.27,80,100,5.66,CA,1681949079
125,dawukou,39.0419,106.3958,282.9,28,94,2.51,CN,1681949300
126,acarau,-2.8856,-40.12,298.5,87,100,2.84,BR,1681949065
127,aldan,58.6031,125.3894,267.1,91,100,2.33,RU,1681949302
128,takoradi,4.8845,-1.7554,298.72,85,98,2.51,GH,1681949302
129,marsh harbour,26.5412,-77.0636,296.58,75,100,8.5,BS,1681949128
130,rio grande,-32.035,-52.0986,285.21,66,67,7.79,BR,1681949304
131,jieshi,22.8134,115.8257,296.05,93,100,1.07,CN,1681949304
132,isafjordur,66.0755,-23.124,281.04,96,100,4.05,IS,1681949046
133,wailua homesteads,22.0669,-159.378,299.68,68,40,7.2,US,1681949069
134,alesund,62.4723,6.1549,280.79,84,25,4.63,NO,1681949306
135,kalevala,65.2,31.1667,274.25,99,100,2.68,RU,1681949056
136,kapa'a,22.0752,-159.319,300.43,68,40,7.2,US,1681949157
137,jiaojiang,28.6803,121.4428,294.82,87,100,4.36,CN,1681949308
138,puerto ayora,-0.7393,-90.3518,296.79,100,100,0.89,EC,1681949020
139,momil,9.2377,-75.6749,300.8,78,98,3.74,CO,1681949310
140,kodiak,57.79,-152.4072,279.88,57,100,4.12,US,1681949060
141,wanning,18.8003,110.3967,300.46,84,10,5.26,CN,1681949311
142,yulinshi,38.2906,109.7494,283.99,20,83,9.75,CN,1681949311
143,mwinilunga,-11.7358,24.4293,288.23,96,21,1.53,ZM,1681949312
144,xiva,41.3783,60.3639,278.14,20,57,4.5,UZ,1681949185
145,avarua,-21.2078,-159.775,299.18,89,75,6.17,CK,1681949053
146,mckenzie,47.7084,-103.4477,276.94,70,100,7.72,US,1681949314
147,inhambane,-23.865,35.3833,292.95,82,0,2.19,MZ,1681949206
148,paranagua,-25.52,-48.5092,291.32,68,43,1.84,BR,1681949315
149,porto-vecchio,41.591,9.2795,284.89,93,0,0.0,FR,1681949316
150,heihe,50.2441,127.4902,273.93,83,100,5.2,CN,1681949317
151,kokshetau,53.2775,69.3883,271.47,69,1,1.59,KZ,1681949318
152,rondonopolis,-16.4708,-54.6356,295.77,94,99,2.08,BR,1681949318
153,lensk,60.7253,114.9278,268.57,65,100,2.36,RU,1681949319
154,chimore,-16.9833,-65.1333,292.9,99,100,0.3,BO,1681949320
155,port sudan,19.6175,37.2164,297.98,69,0,4.03,SD,1681949320
156,iskateley,67.6803,53.1512,272.98,97,100,5.84,RU,1681948998
157,pizarro,4.9533,-77.366,299.63,84,100,2.1,CO,1681949321
158,hammerfest,70.6634,23.6821,278.4,93,75,7.2,NO,1681949021
159,tazovsky,67.4667,78.7,258.57,99,93,2.12,RU,1681949197
160,eyl,7.9803,49.8164,300.37,73,52,3.26,SO,1681949140
161,basse santa su,13.31,-14.2137,306.3,18,20,3.75,GM,1681949323
162,ulaangom,49.9811,92.0667,270.9,35,70,1.98,MN,1681949323
163,dabhol,17.6,73.1667,298.64,82,15,0.28,IN,1681949325
164,arklow,52.7931,-6.1414,282.64,70,49,7.49,IE,1681949325
165,sault ste. marie,46.5168,-84.3333,276.31,65,0,2.57,CA,1681949326
166,whitehorse,60.7161,-135.0538,279.83,52,75,2.06,CA,1681948993
167,singkil,-7.9855,111.4161,298.92,85,43,1.47,ID,1681949327
168,misratah,32.3754,15.0925,291.94,65,88,8.09,LY,1681949327
169,medicine hat,50.0501,-110.6683,274.66,88,100,0.89,CA,1681949327
170,ilhabela,-23.7781,-45.3581,294.74,79,94,0.15,BR,1681949328
171,san matias,-16.3667,-58.4,296.0,90,97,2.2,BO,1681949328
172,urangan,-25.3,152.9,297.15,62,25,8.4,AU,1681949234
173,high river,50.5834,-113.8687,279.7,68,100,7.22,CA,1681949330
174,tremonton,41.7119,-112.1655,280.39,29,100,4.92,US,1681949330
175,haiku-pauwela,20.9219,-156.3051,296.58,93,100,6.17,US,1681949171
176,nyurba,63.2842,118.3319,267.5,86,83,2.29,RU,1681949331
177,labytnangi,66.6572,66.4183,261.83,93,100,1.78,RU,1681949331
178,utrik,11.2278,169.8474,299.95,77,100,7.95,MH,1681949069
179,fale old settlement,-9.3852,-171.2468,301.41,69,71,1.6,TK,1681949064
180,konosha,60.9736,40.257,273.0,98,100,1.54,RU,1681949333
181,llanes,43.4198,-4.7549,287.86,75,2,0.72,ES,1681949333
182,badger,64.8,-147.5333,277.08,41,20,0.0,US,1681949099
183,black river,18.0264,-77.8487,299.08,79,14,2.93,JM,1681949334
184,nouadhibou,20.931,-17.0347,291.83,89,86,8.08,MR,1681949334
185,nizhnedevitsk,51.5419,38.3657,281.4,60,100,4.94,RU,1681949335
186,yashkul',46.1711,45.3435,282.98,54,79,5.04,RU,1681949336
187,kudahuvadhoo,2.6708,72.8944,301.69,72,91,2.0,MV,1681949008
188,kyzyl-mazhalyk,51.1333,90.6,266.94,59,68,1.4,RU,1681949336
189,cockburn town,21.4612,-71.1419,299.27,77,0,5.86,TC,1681949337
190,constitucion,-35.3333,-72.4167,286.88,80,73,4.3,CL,1681949156
191,alice springs,-23.7,133.8833,288.9,63,0,7.2,AU,1681949090
192,selfoss,63.9331,-20.9971,280.42,92,32,2.67,IS,1681949145
193,jabor,5.921,169.6434,301.37,78,90,6.1,MH,1681949339
194,neiafu,-18.65,-173.9833,302.53,84,75,3.6,TO,1681949089
195,isangel,-19.55,169.2667,301.39,62,99,1.23,VU,1681949340
196,guaruja,-23.9931,-46.2564,296.98,26,98,1.62,BR,1681949340
197,zyryanovsk,49.7386,84.2719,260.35,96,97,0.25,KZ,1681949341
198,tarko-sale,64.9225,77.785,256.95,100,91,1.33,RU,1681948993
199,anadyr,64.75,177.4833,272.43,68,20,1.0,RU,1681949057
200,timra,62.487,17.3257,274.97,80,0,3.09,SE,1681949343
201,ugoofaaru,5.6667,73.0,301.14,76,20,1.24,MV,1681949344
202,amalapuram,16.5833,82.0167,297.6,93,6,1.36,IN,1681949345
203,tura,25.5198,90.2201,297.07,83,9,3.5,IN,1681949346
204,borogontsy,62.6683,131.1683,271.04,90,100,1.96,RU,1681949346
205,aasiaat,68.7098,-52.8699,258.16,93,76,1.14,GL,1681949022
206,kuppam,12.75,78.3667,295.63,64,2,1.1,IN,1681949347
207,pyshma,56.9523,63.2513,273.23,59,2,2.71,RU,1681949348
208,quellon,-43.1167,-73.6167,286.29,100,100,0.0,CL,1681949349
209,filadelfia,39.9523,-75.1638,291.09,39,0,4.12,US,1681949164
210,taroa,8.7058,171.2275,300.47,81,92,6.57,MH,1681949350
211,bhaisa,19.1,77.9667,303.45,29,56,0.98,IN,1681949351
212,kangding,30.0513,101.9603,285.18,94,100,1.05,CN,1681949140
213,ibarreta,-25.2144,-59.8585,291.78,59,0,2.43,AR,1681949352
214,oral,51.2333,51.3667,281.86,53,100,2.43,KZ,1681949353
215,jonesborough,36.2943,-82.4735,296.92,51,5,0.99,US,1681949354
216,al quwayrah,29.8004,35.3116,296.6,24,80,2.08,JO,1681949354
217,tindouf,27.6711,-8.1474,290.06,62,36,9.54,DZ,1681949355
218,arawa,-6.2132,155.5367,303.12,63,94,1.55,PG,1681949356
219,ta`u,-14.2336,-169.5144,301.64,77,89,8.18,AS,1681949125
220,khandyga,62.6667,135.6,271.08,87,100,1.8,RU,1681949093
221,katsuura,35.1333,140.3,291.16,83,100,1.59,JP,1681948937
222,realeza,-25.7689,-53.5325,285.99,71,19,1.08,BR,1681949358
223,arraial do cabo,-22.9661,-42.0278,297.13,83,75,3.09,BR,1681948916
224,lemvig,56.5486,8.3102,279.93,78,0,4.64,DK,1681949359
225,ostrov,57.3439,28.3537,278.0,89,5,2.79,RU,1681949361
226,vila do maio,15.1333,-23.2167,295.44,79,76,5.99,CV,1681949362
227,vadso,70.0744,29.7487,277.64,81,100,2.57,NO,1681948985
228,burang,30.25,81.1667,272.0,95,99,3.18,CN,1681949099
229,tarfaya,27.9358,-12.9218,291.19,86,50,5.62,MA,1681949363
230,vilyuchinsk,52.9306,158.4028,279.3,90,100,2.7,RU,1681949115
231,dunedin,-45.8742,170.5036,289.86,80,61,1.22,NZ,1681949080
232,tromso,69.6496,18.957,279.16,93,100,7.72,NO,1681949068
233,afaahiti,-17.75,-149.2833,303.08,83,93,7.19,PF,1681948994
234,mugia,43.1041,-9.2179,287.68,91,72,4.73,ES,1681949366
235,betare oya,5.6,14.0833,294.79,90,85,0.53,CM,1681949367
236,igarka,67.4667,86.5833,254.59,100,91,0.94,RU,1681949368
237,tobruk,32.0836,23.9764,288.79,73,0,6.2,LY,1681949369
238,port mathurin,-19.6833,63.4167,299.17,76,10,9.21,MU,1681949075
239,huancavelica,-12.7667,-74.9833,277.62,89,56,2.56,PE,1681949371
240,tocopilla,-22.092,-70.1979,292.87,79,25,1.52,CL,1681949371
241,hithadhoo,-0.6,73.0833,301.59,72,100,2.48,MV,1681948995
242,uige,-7.6087,15.0613,292.91,91,91,1.35,AO,1681949373
243,hamilton,39.1834,-84.5333,298.5,38,100,4.12,US,1681949144
244,tidjikja,18.5564,-11.4271,302.17,18,82,4.02,MR,1681949374
245,conduaga,8.862,117.4893,301.9,71,100,1.21,PH,1681949374
246,fukuecho,32.6881,128.8419,290.55,85,99,3.18,JP,1681949375
247,kuta,-8.7233,115.1723,301.12,83,40,1.54,ID,1681949376
248,susuman,62.7833,148.1667,267.08,75,100,4.5,RU,1681949376
249,petropavlovsk-kamchatsky,53.0452,158.6483,278.48,52,75,8.0,RU,1681949006
250,nova olinda do norte,-3.8881,-59.0942,297.85,89,96,0.51,BR,1681949377
251,bubaque,11.2833,-15.8333,299.0,72,27,8.81,GW,1681949378
252,oranjemund,-28.55,16.4333,287.65,89,76,2.22,NA,1681949378
253,salinopolis,-0.6136,-47.3561,298.61,88,98,2.17,BR,1681949379
254,hermanus,-34.4187,19.2345,288.04,60,100,4.12,ZA,1681949000
255,garoua boulai,5.8833,14.55,292.55,91,72,1.47,CM,1681949380
256,santa cruz,-17.8,-63.1667,293.41,83,93,2.82,BO,1681949343
257,san rafael del yuma,18.4299,-68.6739,298.91,79,2,2.95,DO,1681949381
258,farah,32.5,62.5,284.72,37,0,2.04,AF,1681949381
259,qamdo,31.1667,97.2333,275.66,56,3,1.78,CN,1681949032
260,north bend,43.4065,-124.2243,284.95,81,100,6.69,US,1681949382
261,mamuju,-2.6748,118.8885,300.81,79,20,0.89,ID,1681949238
262,levuka,50.1834,-105.4011,270.38,96,100,8.37,CA,1681949383
263,geraldton,-28.7667,114.6,292.38,42,7,6.17,AU,1681949384
264,dawson creek,55.7666,-120.2362,278.47,65,100,1.54,CA,1681949385
265,bodaybo,57.8506,114.1933,266.67,80,100,1.0,RU,1681949186
266,enewetak,11.3474,162.3373,298.85,87,100,10.2,MH,1681949151
267,timimoun,29.2639,0.231,297.48,19,0,3.56,DZ,1681949387
268,nova sintra,14.8667,-24.7167,293.61,76,96,7.43,CV,1681949032
269,mitsamiouli,-11.3847,43.2844,300.54,76,95,3.97,KM,1681949388
270,buynaksk,42.819,47.1192,276.16,66,66,2.46,RU,1681949389
271,ada,43.4166,-116.1262,281.67,56,100,9.26,US,1681949136
272,la ferte-mace,48.59,-0.358,279.85,93,1,3.24,FR,1681949390
273,port saint john's,-31.6229,29.5448,294.54,37,0,3.79,ZA,1681949391
274,chibougamau,49.9168,-74.3659,268.94,74,100,4.12,CA,1681949392
275,narvik,68.4384,17.4272,280.58,96,100,2.89,NO,1681949393
276,revda,56.801,59.9303,273.57,74,98,1.41,RU,1681949141
277,naifaru,5.4444,73.3657,301.36,75,48,1.82,MV,1681949393
278,sinabang,2.4803,96.3801,299.84,80,99,0.7,ID,1681949394
279,cerro de ortega,18.75,-103.7667,300.3,64,28,2.68,MX,1681949395
280,axim,4.8699,-2.2405,299.42,85,98,1.73,GH,1681949396
281,bria,6.5423,21.9863,297.19,71,69,0.51,CF,1681949396
282,las heras,-46.5419,-68.9359,287.59,65,100,5.14,AR,1681949397
283,lerma,42.0261,-3.7598,280.46,47,0,1.88,ES,1681949397
284,azul,-36.777,-59.8585,282.93,63,2,2.87,AR,1681949398
285,sao miguel do tapuio,-5.5036,-41.3233,295.53,94,100,1.18,BR,1681949398
286,ust'-ilimsk,58.0006,102.6619,265.48,84,100,4.24,RU,1681949193
287,daru,-9.0763,143.2092,301.7,72,73,3.22,PG,1681949399
288,ichalkaranji,16.7,74.4667,298.69,62,39,2.79,IN,1681949400
289,nieuw amsterdam,5.8833,-55.0833,299.27,86,48,4.31,SR,1681949400
290,kinkala,-4.3614,14.7644,294.96,96,95,1.37,CG,1681949401
291,pemangkat,1.1667,108.9667,299.64,81,68,1.55,ID,1681949238
292,galle,6.0367,80.217,299.94,80,30,1.13,LK,1681949405
293,san pedro,14.35,121.0167,303.35,79,2,2.37,PH,1681949407
294,portland,45.5234,-122.6762,283.49,75,100,3.13,US,1681948766
295,queenstown,-31.8976,26.8753,288.21,33,56,2.57,ZA,1681949166
296,as sulayyil,20.4607,45.5779,293.29,68,71,3.3,SA,1681949151
297,urzhar,47.093,81.6294,274.74,62,25,1.13,KZ,1681948996
298,zaozersk,69.4005,32.4476,276.31,92,100,10.03,RU,1681949192
299,port elizabeth,-33.918,25.5701,293.88,82,0,3.09,ZA,1681948866
300,kalashnikovo,57.2824,35.2262,277.09,77,20,2.14,RU,1681949412
301,remire-montjoly,4.9167,-52.2667,297.17,100,75,0.0,GF,1681949120
302,kroya,-7.6331,109.2461,299.41,85,63,1.5,ID,1681949414
303,uacu cungo,-11.3634,15.1208,291.36,89,96,0.78,AO,1681949417
304,fayzabad,37.1166,70.58,282.29,84,77,0.78,AF,1681949418
305,palikir - national government center,6.9248,158.1611,300.62,83,100,4.63,FM,1681949186
306,manokwari,-0.8667,134.0833,300.36,76,97,0.6,ID,1681949419
307,saint-flour,45.0833,3.0,278.54,89,45,0.37,FR,1681949420
308,xinyuan,37.3,99.0,274.61,74,98,1.92,CN,1681949420
309,naze,28.3667,129.4833,292.24,96,100,0.51,JP,1681949421
310,flying fish cove,-10.4217,105.6791,300.11,78,80,7.99,CX,1681949020
311,morwell,-38.2333,146.4,287.26,60,9,1.75,AU,1681949422
312,lauro de freitas,-12.8944,-38.3272,302.16,84,40,6.17,BR,1681949299
313,llerena,38.2354,-6.0739,284.5,61,13,2.21,ES,1681949424
314,villa ojo de agua,-29.5,-63.6938,289.31,50,1,3.54,AR,1681949425
315,baruun-urt,46.6806,113.2792,273.52,21,2,8.08,MN,1681949426
316,tsengel,49.4783,100.8894,269.28,37,92,1.84,MN,1681949426
317,choyr,46.3611,108.3611,271.96,19,4,4.42,MN,1681949427
318,santo antonio da platina,-23.295,-50.0772,287.76,82,1,1.88,BR,1681949427
319,westport,41.1415,-73.3579,286.1,51,0,2.06,US,1681949219
320,lihue,21.9789,-159.3672,300.02,69,40,7.2,US,1681949182
321,crane,31.3974,-102.3501,304.85,7,0,7.38,US,1681949003
322,al kharijah,25.4514,30.5464,301.15,13,96,4.01,EG,1681949430
323,mil'kovo,55.6078,37.7956,280.42,63,71,2.94,RU,1681949430
324,villa gesell,-37.2639,-56.973,284.29,67,81,5.65,AR,1681949431
325,klyuchi,52.2667,79.1667,266.01,83,6,3.05,RU,1681949054
326,wotje,9.4543,170.2367,300.05,82,98,7.36,MH,1681949432
327,opuwo,-18.0607,13.84,293.09,55,59,1.29,NA,1681949433
328,khandud,36.9513,72.318,271.37,87,100,0.83,AF,1681949434
329,vila velha,-20.3297,-40.2925,299.12,88,0,5.14,BR,1681949002
330,le port,-20.9373,55.2919,298.13,93,21,3.28,RE,1681949436
331,shalkar,47.8288,59.6258,281.53,37,81,3.28,KZ,1681949437
332,tsiombe,-25.3,45.4833,294.83,95,74,3.14,MG,1681949438
333,sars,56.5502,57.1366,275.24,87,93,1.5,RU,1681949438
334,dryden,49.7833,-92.7503,278.31,30,75,6.17,CA,1681948815
335,ceres,37.5949,-120.9577,292.42,36,0,5.14,US,1681949439
336,inarajan village,13.2736,144.7484,302.59,73,75,8.21,GU,1681949440
337,ust-nera,64.5667,143.2,265.94,88,100,3.9,RU,1681948987
338,gadzhiyevo,69.2551,33.3362,276.21,91,100,9.47,RU,1681949441
339,severo-yeniseyskiy,60.3725,93.0408,259.44,96,96,1.74,RU,1681949441
340,new norfolk,-42.7826,147.0587,288.1,82,100,0.45,AU,1681949032
341,east london,-33.0153,27.9116,300.39,28,52,4.67,ZA,1681949055
342,lib,8.3122,167.3766,300.71,80,71,6.79,MH,1681949443
343,santa ana de yacuma,-13.75,-65.4333,296.61,96,100,4.15,BO,1681949443
344,demba,-5.51,22.2667,293.52,98,70,1.24,CD,1681949444
345,burnie,-41.0667,145.9167,288.12,87,96,5.43,AU,1681949444
346,roma,43.2128,-75.4557,276.94,66,0,3.09,US,1681949167
347,broome,42.2506,-75.833,281.36,63,0,3.6,US,1681949446
348,happy valley-goose bay,53.3168,-60.3315,278.32,70,75,4.63,CA,1681949446
349,maputo,-25.9653,32.5892,292.72,89,0,1.34,MZ,1681949447
350,pimentel,-6.8367,-79.9342,299.31,69,0,5.66,PE,1681949447
351,gilgit,35.9221,74.3087,283.96,84,95,1.05,PK,1681949448
352,teotitlan,18.1319,-97.0767,301.39,52,80,3.89,MX,1681949448
353,abepura,-2.6333,140.5833,298.6,83,40,1.03,ID,1681949449
354,lospalos,-8.5186,127.0025,297.49,74,52,4.22,TL,1681949449
355,mus,39.0,41.75,281.69,84,95,0.57,TR,1681949450
356,pokrovka,42.3414,78.0056,274.77,50,100,2.44,KG,1681949451
357,cabo san lucas,22.8909,-109.9124,300.71,46,100,3.91,MX,1681948802
358,san ignacio de velasco,-16.3667,-60.95,292.6,98,98,2.57,BO,1681949451
359,belle fourche,44.6714,-103.8522,284.29,45,53,10.75,US,1681949198
360,bel ombre,-4.6167,55.4167,300.55,83,100,8.59,SC,1681949452
361,murzuq,25.9155,13.9184,294.23,16,0,3.53,LY,1681948968
362,lazaro cardenas,17.9583,-102.2,300.61,67,29,4.07,MX,1681949084
363,crucecita,-28.95,-58.9833,289.52,50,1,3.05,AR,1681949454
364,fort st. john,56.2499,-120.8529,278.09,65,75,3.09,CA,1681948907
365,gisborne,-38.6533,178.0042,295.07,62,14,2.26,NZ,1681949455
366,ola,59.5833,151.2833,273.48,80,98,5.16,RU,1681949099
367,kupang,-10.1667,123.5833,300.47,69,20,4.63,ID,1681949455
368,chanthaburi,12.8333,102.1667,295.67,86,42,1.77,TH,1681949456
369,mossel bay,-34.1831,22.146,290.69,82,71,3.24,ZA,1681949457
370,papao,-17.75,-149.55,303.97,79,94,6.94,PF,1681949159
371,kerman,30.2832,57.0788,288.91,25,0,1.19,IR,1681949458
372,kirkwall,58.9848,-2.9587,278.18,100,3,0.0,GB,1681949458
373,kuanda,56.3161,116.0806,266.78,74,100,3.02,RU,1681949459
374,rancho palos verdes,33.7445,-118.387,295.42,56,0,4.63,US,1681949459
375,photharam,13.6923,99.8497,299.1,74,46,3.25,TH,1681949460
376,vila franca do campo,37.7167,-25.4333,286.38,86,99,5.47,PT,1681949460
377,bassila,9.0081,1.6654,299.43,70,32,1.94,BJ,1681949461
378,nadym,65.5333,72.5167,256.93,92,39,1.39,RU,1681949052
379,morrope,-6.5417,-80.0111,299.21,63,90,4.41,PE,1681949462
380,kismayo,-0.3582,42.5454,300.49,79,85,4.39,SO,1681949080
381,xilin hot,43.9667,116.0333,276.37,16,21,7.04,CN,1681949464
382,st. john's,47.5649,-52.7093,275.19,94,100,5.66,CA,1681948863
383,colonia,50.9333,6.95,282.57,49,0,1.03,DE,1681949208
384,malango,-2.9627,119.9001,295.8,90,87,0.37,ID,1681949466
385,kununurra,-15.7667,128.7333,300.14,39,10,8.75,AU,1681949467
386,habiganj,24.3833,91.4167,298.42,89,14,2.91,BD,1681949467
387,kolonia,50.9333,6.95,282.57,49,0,1.03,DE,1681949468
388,wenling,28.3669,121.36,291.14,89,100,5.53,CN,1681949469
389,hami,42.8,93.45,280.05,17,60,2.54,CN,1681949470
390,songling,31.1933,120.7176,292.01,77,100,3.16,CN,1681949470
391,lagos,6.5833,3.75,298.33,82,100,1.62,NG,1681949176
392,kerikeri,-35.2268,173.9474,294.77,96,90,0.89,NZ,1681949154
393,winona,43.9666,-91.7668,278.14,77,100,7.72,US,1681949472
394,brookings,44.3114,-96.7984,282.34,93,100,6.17,US,1681949473
395,slonim,53.0867,25.3219,281.44,74,100,3.53,BY,1681949473
396,rongelap,11.1635,166.8941,299.48,82,100,9.36,MH,1681948990
397,mount pleasant,32.7941,-79.8626,296.59,64,0,2.06,US,1681949305
398,pico truncado,-46.7949,-67.9573,289.62,54,85,8.79,AR,1681949475
399,beroroha,-21.6667,45.1667,294.23,88,3,1.56,MG,1681949475
400,north battleford,52.7834,-108.2847,272.26,76,100,7.19,CA,1681949476
401,laguna,38.421,-121.4238,292.75,32,0,5.14,US,1681949083
402,kani keli,-12.9536,45.1033,299.74,75,97,3.26,YT,1681949175
403,kikwit,-5.041,18.8162,296.82,85,70,1.16,CD,1681949478
404,weno,7.4515,151.8468,299.96,82,100,8.29,FM,1681949178
405,weisswasser,51.5167,14.6333,277.72,96,75,1.72,DE,1681949479
406,huarmey,-10.0681,-78.1522,298.19,80,63,3.97,PE,1681949165
407,sale,34.0389,-6.8166,291.53,88,88,3.6,MA,1681949481
408,adis zemen,12.1167,37.7833,293.48,32,75,0.71,ET,1681949482
409,sarangani,5.4033,125.4636,301.22,75,8,2.87,PH,1681949482
410,port douglas,-16.4833,145.4667,299.79,73,28,4.44,AU,1681949024
411,baharly,38.4362,57.4316,286.34,19,3,3.48,TM,1681949484
412,mainpuri,27.2333,79.0167,301.55,30,81,2.96,IN,1681949484
413,zile,40.3031,35.8864,283.82,88,69,0.25,TR,1681949485
414,mukalla,14.5425,49.1242,299.67,72,0,1.4,YE,1681949485
415,esmeralda,21.8525,-78.1169,297.61,75,56,4.78,CU,1681949486
416,hadibu,12.65,54.0333,300.11,76,12,2.42,YE,1681949023
417,guatire,10.4762,-66.5427,294.14,93,98,1.02,VE,1681949487
418,bafq,31.6128,55.4107,291.42,22,0,0.61,IR,1681949488
419,koutiala,12.3917,-5.4642,305.23,11,64,2.6,ML,1681949488
420,safford,32.834,-109.7076,299.66,10,0,9.77,US,1681949490
421,n'zeto,-7.2312,12.8666,298.25,88,98,2.53,AO,1681949491
422,sevastopol,44.6,33.5333,283.71,77,96,0.89,UA,1681949492
423,kasimov,54.9411,41.3953,281.49,65,100,2.44,RU,1681949493
424,floro,61.5996,5.0328,282.19,81,20,0.0,NO,1681949135
425,ludwin,51.3461,22.9058,282.33,81,0,1.54,PL,1681949495
426,astrakhan,46.3497,48.0408,281.08,81,0,5.0,RU,1681949495
427,dauphin,51.1494,-100.0502,272.23,93,100,8.23,CA,1681949187
428,puerto baquerizo moreno,-0.9,-89.6,299.4,78,69,2.05,EC,1681949000
429,vilyuysk,63.7553,121.6247,269.04,93,92,1.96,RU,1681949497
430,arteche,12.2645,125.4048,301.08,80,22,3.33,PH,1681949498
431,thinadhoo,0.5333,72.9333,300.93,76,99,2.05,MV,1681949498
432,gaiman,-43.2897,-65.4929,294.02,46,0,5.1,AR,1681949499
433,kintampo,8.0563,-1.7306,299.17,72,97,1.45,GH,1681949499
434,kingston,17.997,-76.7936,301.68,83,20,8.75,JM,1681949036
435,akureyri,65.6835,-18.0878,279.67,93,37,3.66,IS,1681949500
436,strezhevoy,60.7333,77.5889,269.78,96,100,3.22,RU,1681949501
437,porto novo,6.4965,2.6036,299.53,84,99,2.82,BJ,1681949371
438,alvand,36.3187,49.1678,284.28,44,16,1.16,IR,1681949502
439,cumbal,0.9088,-77.7915,283.54,92,100,0.95,CO,1681949502
440,posto fiscal rolim de moura,-13.0833,-62.2667,296.82,96,100,0.99,BR,1681949503
441,odienne,9.51,-7.5692,300.42,55,58,1.73,CI,1681949504
442,sorong,-0.8833,131.25,300.23,82,27,2.14,ID,1681949437
443,illizi,26.4833,8.4667,300.38,10,2,9.12,DZ,1681949505
444,grand gaube,-20.0064,57.6608,299.47,77,17,0.89,MU,1681949505
445,tres arroyos,-38.3739,-60.2798,283.37,77,0,1.43,AR,1681949506
446,krasnyy chikoy,50.3643,108.7512,263.79,41,49,2.78,RU,1681949506
447,pangody,65.85,74.4859,255.57,98,62,0.97,RU,1681949506
448,lianzhou,24.7811,112.3825,296.12,86,11,0.45,CN,1681949507
449,kosong,38.3788,128.4676,292.05,68,51,4.5,KR,1681949507
450,midvagur,62.0511,-7.1939,279.61,75,0,0.51,FO,1681949508
451,nizhneudinsk,54.9076,99.0276,266.84,60,97,1.73,RU,1681949508
452,gamba,-2.65,10.0,298.25,92,100,1.14,GA,1681949509
453,salalah,17.0151,54.0924,300.2,74,20,1.03,OM,1681949509
454,shetpe,44.1667,52.1167,283.42,26,30,6.19,KZ,1681949510
455,penaranda de bracamonte,40.9011,-5.2003,283.36,53,5,3.12,ES,1681949511
456,saint croix,17.7397,-64.7388,297.57,78,20,3.6,VI,1681949512
457,sao joao da barra,-21.6403,-41.0511,298.2,89,90,2.91,BR,1681949134
458,huron,41.1501,-82.5499,285.75,67,49,2.93,US,1681949513
459,uturoa,-16.7333,-151.4333,301.26,78,93,5.71,PF,1681949146
460,okakarara,-20.5833,17.4333,292.1,47,68,1.53,NA,1681949514
461,hudson,40.7168,-74.0663,290.0,43,0,3.6,US,1681949357
462,banda aceh,5.5577,95.3222,299.75,81,100,2.94,ID,1681949514
463,kayangel,8.0823,134.7173,302.13,73,7,4.62,PW,1681949515
464,pisco,-13.7,-76.2167,294.27,88,0,6.69,PE,1681949516
465,turpan,42.9333,89.1667,283.98,15,81,2.08,CN,1681949516
466,garissa,-0.4536,39.6401,299.01,80,78,4.54,KE,1681949517
467,manaure,11.7751,-72.4445,300.76,62,20,8.92,CO,1681949517
468,talakan,50.3167,130.3667,274.55,95,100,2.96,RU,1681949518
469,chirilagua,13.2203,-88.1386,299.82,64,87,2.41,SV,1681949518
470,estevan,49.1334,-102.9842,273.34,100,100,11.32,CA,1681949519
471,greymouth,-42.4667,171.2,290.72,59,55,0.62,NZ,1681949025
472,roanoke,37.271,-79.9414,299.6,43,20,2.57,US,1681949427
473,svislach,53.6404,27.9199,282.29,83,59,3.88,BY,1681949520
474,ondjiva,-17.0667,15.7333,294.53,50,58,1.81,AO,1681949520
475,itaporanga,-7.3044,-38.1503,298.15,71,94,0.77,BR,1681949521
476,maine soroa,13.2114,12.0241,302.97,16,0,4.18,NE,1681949522
477,altamont,42.2068,-121.7372,279.25,50,100,1.79,US,1681949522
478,kaele,10.1092,14.4508,304.92,36,72,3.49,CM,1681949523
479,vernon,50.2581,-119.2691,287.65,30,100,3.09,CA,1681948848
480,luderitz,-26.6481,15.1594,288.48,81,77,3.22,NA,1681949524
481,maneromango,-7.1988,38.7848,293.69,98,100,1.83,TZ,1681949525
482,thunder bay,48.4001,-89.3168,273.95,86,100,2.16,CA,1681949262
483,arauco,-37.2463,-73.3175,285.91,88,69,1.52,CL,1681949526
484,kavaratti,10.5669,72.642,301.81,71,14,3.44,IN,1681949527
485,sidney,-33.8679,151.2073,291.07,88,75,8.23,AU,1681949340
486,artigas,-30.4,-56.4667,283.45,75,34,3.35,UY,1681949529
487,saint-pierre,-21.3393,55.4781,296.97,78,14,3.6,RE,1681949025
488,raychikhinsk,49.7838,129.4121,274.09,100,100,3.73,RU,1681949531
489,la'ie,21.6477,-157.9253,302.53,61,99,1.79,US,1681949158
490,kutum,14.2,24.6667,297.05,12,2,2.58,SD,1681949532
491,swakopmund,-22.6833,14.5333,291.38,74,1,4.35,NA,1681949533
492,itoman,26.1247,127.6694,298.36,94,75,6.17,JP,1681949534
493,awjilah,29.1081,21.2869,290.27,39,0,3.93,LY,1681949534
494,san ignacio,17.1561,-89.0714,301.45,57,71,4.3,BZ,1681949535
495,tralee,52.2704,-9.7026,280.38,96,39,3.65,IE,1681949535
496,oradea,47.0667,21.9333,282.17,76,31,2.24,RO,1681949536
497,belluru,12.9911,76.7444,294.87,78,0,2.56,IN,1681949537
498,dnestrovsc,46.6222,29.9133,283.56,94,100,4.81,MD,1681949537
499,al bawiti,28.3492,28.8659,290.0,62,7,7.29,EG,1681949538
500,taos,36.4072,-105.5731,288.37,14,0,14.4,US,1681949263
501,villa huidobro,-34.8383,-64.5869,290.27,51,2,1.35,AR,1681949539
502,murud,18.3258,72.965,299.87,78,2,0.33,IN,1681949540
503,mokhsogollokh,61.4681,128.9203,269.65,91,100,3.78,RU,1681949541
504,semey,50.4111,80.2275,269.33,64,1,1.39,KZ,1681949542
505,egilsstadir,65.2653,-14.3948,281.68,82,46,2.98,IS,1681949543
506,mata-utu,-13.2816,-176.1745,301.97,74,100,7.03,WF,1681949543
507,sal rei,16.1833,-22.9167,294.76,79,95,6.03,CV,1681949544
508,amga,60.8953,131.9608,271.31,93,100,1.01,RU,1681949545
509,xiahu,26.6106,119.9483,290.95,97,100,4.13,CN,1681949546
510,kilju,40.9642,129.3278,293.16,36,100,1.18,KP,1681949357
511,rosales,15.8944,120.6328,301.99,72,10,2.68,PH,1681949547
512,bairnsdale,-37.8333,147.6167,289.85,64,1,1.79,AU,1681949547
513,azhikkal,11.9,75.3667,299.08,84,52,1.6,IN,1681949297
514,kavieng,-2.5744,150.7967,301.69,69,69,1.23,PG,1681949549
515,lumberton,34.6182,-79.0086,298.2,56,0,0.0,US,1681949550
516,moab,38.5733,-109.5498,285.71,16,33,0.89,US,1681949428
517,natal,-5.795,-35.2094,299.4,80,69,3.5,BR,1681949385
518,huanren,41.2647,125.3667,284.38,65,97,5.3,CN,1681949553
519,kargasok,59.0556,80.8572,267.16,97,100,2.73,RU,1681949554
520,dhidhdhoo,6.8833,73.1,301.4,76,58,1.47,MV,1681949555
521,saint-pierre-du-mont,43.8845,-0.5219,288.03,75,0,0.51,FR,1681949555
522,bawku,11.0616,-0.2417,303.89,42,63,2.74,GH,1681949556
523,howard springs,-12.497,131.047,300.3,81,41,2.58,AU,1681949556
524,hilo,19.7297,-155.09,299.97,77,40,6.69,US,1681949557
525,baillif,16.0202,-61.7463,297.87,75,5,6.31,GP,1681949557
526,lincoln city,44.9582,-124.0179,283.91,76,74,2.24,US,1681949503
527,novoul'yanovsk,54.1496,48.3891,281.06,52,72,2.49,RU,1681949558
528,coahuayana de hidalgo,18.7,-103.6583,301.11,59,27,2.7,MX,1681949078
529,tobelo,1.7284,128.0095,301.13,77,23,0.57,ID,1681949559
530,kasongo-lunda,-6.4667,16.8167,294.86,96,59,0.94,CD,1681949560
531,porirua,-41.1333,174.85,291.4,96,98,6.23,NZ,1681949560
532,zahedan,29.4963,60.8629,285.24,17,0,0.37,IR,1681949453
533,perros-guirec,48.8145,-3.4396,284.54,87,10,8.16,FR,1681949561
534,nuuk,64.1835,-51.7216,271.97,93,100,4.47,GL,1681949200
535,tevriz,57.509,72.4042,269.42,67,31,2.08,RU,1681949562
536,sur,22.5667,59.5289,300.42,63,63,4.66,OM,1681949292
537,kokoda,-8.8785,147.7407,303.16,61,45,1.27,PG,1681949563
538,luang namtha,20.9497,101.4011,298.01,40,0,0.46,LA,1681949563
539,sidhi,24.4167,81.8833,301.12,23,65,2.44,IN,1681949564
540,obo,5.3998,26.4869,293.97,87,65,1.85,CF,1681949565
541,ulsteinvik,62.3432,5.8487,280.79,82,22,0.89,NO,1681949565
542,cacheu,12.2706,-16.1658,297.58,57,51,2.22,GW,1681949565
543,taradale,-39.5333,176.85,294.83,73,10,1.79,NZ,1681949566
544,bullsbrook,-31.6667,116.0,290.67,45,0,3.6,AU,1681949566
545,santa elena de uairen,4.6167,-61.1333,296.4,69,42,0.88,VE,1681949567
546,kenora,49.8167,-94.4337,277.47,29,100,7.15,CA,1681949567
547,valparaiso,-33.0393,-71.6273,290.37,54,0,2.06,CL,1681949568
548,tweed heads,-28.1817,153.547,298.82,60,40,6.69,AU,1681949272
549,fuyuan,46.4333,127.0833,281.51,29,81,11.99,CN,1681949569
550,shenjiamen,29.9576,122.298,289.14,93,100,5.5,CN,1681949569
551,puente alto,-33.6167,-70.5833,294.79,18,71,0.44,CL,1681949570
552,shakawe,-18.3667,21.85,292.27,37,35,2.86,BW,1681949570
553,omdurman,15.6445,32.4777,301.44,12,0,4.68,SD,1681949570
554,koh kong,11.6175,102.9806,300.18,88,86,1.5,KH,1681949571
555,zhenzhou,32.2692,119.1789,292.43,81,11,4.19,CN,1681949571
556,joshimath,30.5667,79.5667,284.89,97,100,1.57,IN,1681949572
557,margate,51.3813,1.3862,282.54,75,2,3.13,GB,1681949155
558,san patricio,28.017,-97.5169,299.35,76,69,6.66,US,1681949038
559,bilmak,47.3624,36.6511,282.12,97,88,3.96,UA,1681949573
560,miquelon,47.0975,-56.3814,274.15,96,100,7.46,PM,1681949574
561,cidade velha,14.9167,-23.6167,296.41,73,75,7.2,CV,1681949076
562,rokycany,49.7427,13.5946,277.03,95,9,25.03,CZ,1681949575
563,san lawrenz,36.0553,14.204,289.18,78,56,0.89,MT,1681949575
564,prince rupert,54.3161,-130.3201,281.84,64,95,3.18,CA,1681949575
565,tolanaro,-25.0319,46.9987,296.19,94,40,3.09,MG,1681949162
566,sakiai,54.9547,23.0358,281.46,84,70,5.96,LT,1681949576
567,barra do bugres,-15.0725,-57.1811,295.99,97,100,0.94,BR,1681949084
568,nema,57.5067,50.5011,276.08,92,6,1.62,RU,1681949577
569,sovetskiy,61.3614,63.5842,268.19,90,88,2.17,RU,1681949578
570,caldas novas,-17.7417,-48.625,293.75,94,100,1.42,BR,1681949578
571,san juan de miraflores,-12.1629,-76.9635,297.69,75,59,3.74,PE,1681949579
572,kurtamysh,54.9103,64.4319,273.74,53,18,3.51,RU,1681949579
573,xining,36.6167,101.7667,277.68,40,61,2.04,CN,1681949580
574,ambasa,23.9172,91.8472,297.61,89,41,2.22,IN,1681949580
575,blama,7.8736,-11.3433,298.81,86,27,0.94,SL,1681949581
576,antequera,37.0194,-4.5612,286.45,88,98,2.13,ES,1681949582
577,saudarkrokur,65.7461,-19.6394,281.69,83,100,5.81,IS,1681949584
578,broken hill,-31.95,141.4333,287.09,52,0,7.9,AU,1681949584
