City_ID,City,Lat,Lng,Max Temp,Humidity,Cloudiness,Wind Speed,Country,Date
0,ta`u,-14.2336,-169.5144,26.76,79,34,3.79,AS,1682276261
1,blackmans bay,-43.0167,147.3167,7.08,86,68,2.53,AU,1682276262
2,iskateley,67.6803,53.1512,-7.27,91,25,6.4,RU,1682276028
3,hajnowka,52.7433,23.5812,12.23,54,3,0.45,PL,1682276172
4,waitangi,-43.9535,-176.5597,13.23,92,100,2.24,NZ,1682276263
5,maba,24.6841,113.5984,17.61,96,100,1.66,CN,1682276264
6,punta arenas,-53.15,-70.9167,9.06,57,75,7.2,CL,1682275845
7,georgetown,5.4112,100.3354,25.96,94,20,2.06,MY,1682275931
8,ponta delgada,37.7333,-25.6667,18.4,94,75,7.72,PT,1682276011
9,the pas,53.8251,-101.2541,2.01,35,0,4.63,CA,1682276266
10,aykhal,66.0,111.5,-10.53,98,100,0.8,RU,1682276267
11,adamstown,-25.066,-130.1015,24.45,88,100,6.99,PN,1682276267
12,yellowknife,62.456,-114.3525,9.29,37,40,1.03,CA,1682275935
13,lihue,21.9789,-159.3672,25.58,95,100,1.54,US,1682276269
14,mili,6.0815,171.735,27.82,81,100,8.76,MH,1682276269
15,malanje,-9.5402,16.341,19.29,96,99,1.64,AO,1682276270
16,port lincoln,-34.7333,135.8667,17.71,78,0,4.5,AU,1682275945
17,edinburgh of the seven seas,-37.0676,-12.3116,17.42,78,100,11.71,SH,1682276271
18,grytviken,-54.2811,-36.5092,3.74,96,100,5.14,GS,1682276271
19,hermanus,-34.4187,19.2345,17.93,87,100,4.21,ZA,1682275935
20,klyuchi,52.2667,79.1667,9.51,50,100,7.75,RU,1682276272
21,iqaluit,63.7506,-68.5145,0.85,86,100,6.17,CA,1682275928
22,vorgashor,67.5833,63.95,-7.73,85,100,6.89,RU,1682276273
23,gadzhiyevo,69.2551,33.3362,-2.6,85,98,10.21,RU,1682276273
24,kodiak,57.79,-152.4072,1.73,51,0,5.14,US,1682275964
25,manokwari,-0.8667,134.0833,25.3,81,48,1.4,ID,1682276043
26,college,64.8569,-147.8028,-10.23,53,75,7.72,US,1682276048
27,longyearbyen,78.2186,15.6401,-6.09,63,0,1.54,SJ,1682275999
28,berezovyy,51.6667,135.7,-3.08,97,99,1.85,RU,1682276276
29,codrington,-38.2667,141.9667,10.56,86,0,2.69,AU,1682275981
30,ushuaia,-54.8,-68.3,8.81,46,20,1.54,AR,1682276164
31,tiksi,71.6872,128.8694,-12.58,96,100,1.71,RU,1682276024
32,ngetkib,7.3645,134.5148,27.4,75,100,2.92,PW,1682276278
33,ust-nera,64.5667,143.2,-9.92,96,100,3.18,RU,1682276279
34,coquimbo,-29.9533,-71.3436,19.85,63,20,4.12,CL,1682276279
35,saipan,15.1355,145.701,27.39,100,20,8.23,MP,1682276279
36,avarua,-21.2078,-159.775,25.03,73,31,3.6,CK,1682275941
37,jamestown,42.097,-79.2353,6.77,68,100,6.17,US,1682275956
38,razlog,41.8863,23.4671,11.22,90,6,0.65,BG,1682276281
39,thinadhoo,0.5333,72.9333,29.12,73,64,2.66,MV,1682276281
40,fale old settlement,-9.3852,-171.2468,28.53,75,32,2.78,TK,1682276282
41,walvis bay,-22.9575,14.5053,18.53,72,0,0.0,NA,1682275951
42,gasa,31.5,34.4667,17.71,72,38,2.91,PS,1682276282
43,bredasdorp,-34.5322,20.0403,17.76,84,100,2.63,ZA,1682275930
44,ilulissat,69.2167,-51.1,2.01,93,100,0.0,GL,1682275938
45,port-aux-francais,-49.35,70.2167,4.15,72,100,14.85,TF,1682276285
46,papatowai,-46.5619,169.4708,8.68,63,51,8.99,NZ,1682276285
47,carbonear,47.7332,-53.2148,5.13,91,100,8.44,CA,1682276286
48,albany,42.6001,-73.9662,10.77,90,100,2.79,US,1682275804
49,irymple,-34.25,142.1667,14.76,67,0,3.93,AU,1682276287
50,crane,31.3974,-102.3501,8.34,74,100,5.39,US,1682276287
51,sinabang,2.4803,96.3801,27.49,80,100,1.71,ID,1682276288
52,maloye ganyushkino,46.6,49.2667,15.65,57,100,1.62,KZ,1682276288
53,west island,-12.1568,96.8225,26.99,89,40,4.63,CC,1682276289
54,minab,27.1467,57.0801,26.55,51,100,1.59,IR,1682276289
55,arkalyk,50.2486,66.9114,11.12,69,7,5.46,KZ,1682276290
56,new norfolk,-42.7826,147.0587,7.73,61,12,1.62,AU,1682275966
57,karratha,-20.7377,116.8463,26.46,62,76,0.91,AU,1682276003
58,paso de carrasco,-34.8603,-56.0522,21.25,92,75,4.63,UY,1682276066
59,kailua-kona,19.6406,-155.9956,26.27,85,100,3.09,US,1682276291
60,tura,25.5198,90.2201,18.89,74,67,1.46,IN,1682276292
61,puerto natales,-51.7236,-72.4875,11.25,46,75,4.12,CL,1682276293
62,sao raimundo das mangabeiras,-7.0219,-45.4811,32.86,40,12,3.36,BR,1682276294
63,thompson,55.7435,-97.8558,0.09,55,20,6.17,CA,1682275994
64,alofi,-19.0595,-169.9187,21.94,94,2,2.57,NU,1682276057
65,malvan,16.0667,73.4667,26.59,72,5,4.21,IN,1682276295
66,wailua homesteads,22.0669,-159.378,25.24,94,100,1.54,US,1682276296
67,westport,41.1415,-73.3579,19.49,74,100,4.63,US,1682276047
68,qandala,11.472,49.8728,28.98,63,22,1.69,SO,1682276297
69,ribeira grande,38.5167,-28.7,18.22,88,75,2.57,PT,1682276037
70,port mathurin,-19.6833,63.4167,26.2,81,8,7.87,MU,1682276297
71,anadyr,64.75,177.4833,-5.72,85,20,7.0,RU,1682276298
72,bilibino,68.0546,166.4372,-8.9,67,96,2.84,RU,1682276298
73,kenai,60.5544,-151.2583,0.08,51,100,8.75,US,1682276021
74,atafu village,-8.5421,-172.5159,28.54,72,80,1.74,TK,1682276299
75,isafjordur,66.0755,-23.124,4.02,52,0,5.14,IS,1682276300
76,ilabaya,-17.4208,-70.5133,24.11,48,0,4.49,PE,1682276300
77,hotan,37.0997,79.9269,16.47,13,0,2.58,CN,1682276301
78,happy valley-goose bay,53.3168,-60.3315,8.17,66,20,4.12,CA,1682276301
79,la sarre,48.8002,-79.1996,1.78,100,100,1.77,CA,1682276302
80,lebu,-37.6167,-73.65,15.06,73,0,5.77,CL,1682275945
81,zalishchyky,48.6447,25.7339,10.53,72,9,2.76,UA,1682276304
82,talnakh,69.4865,88.3972,1.23,92,99,3.73,RU,1682275996
83,petropavlovsk-kamchatsky,53.0452,158.6483,-1.67,100,75,1.0,RU,1682276305
84,at taj,24.2049,23.2857,29.86,16,59,4.97,LY,1682276305
85,puerto baquerizo moreno,-0.9,-89.6,28.55,74,75,6.17,EC,1682275946
86,hawaiian paradise park,19.5933,-154.9731,24.39,93,40,3.6,US,1682276306
87,narvik,68.4384,17.4272,-0.33,89,6,1.84,NO,1682276306
88,tommot,58.9564,126.2925,-6.93,97,100,1.23,RU,1682276023
89,castillos,-34.1667,-53.8333,20.29,75,100,3.79,UY,1682276307
90,remire-montjoly,4.9167,-52.2667,25.02,94,100,0.0,GF,1682276308
91,arraial do cabo,-22.9661,-42.0278,26.98,50,0,6.17,BR,1682275967
92,suntar,62.1444,117.6319,-12.03,100,89,0.88,RU,1682276050
93,pacific grove,36.6177,-121.9166,18.78,87,100,4.12,US,1682275985
94,mejit,10.2753,170.8646,27.14,81,31,9.93,MH,1682276310
95,prince george,53.9166,-122.753,7.69,93,100,4.63,CA,1682275864
96,uturoa,-16.7333,-151.4333,28.09,77,98,7.46,PF,1682276311
97,puerto colombia,10.9878,-74.9547,31.05,73,100,4.64,CO,1682276312
98,new mirpur,33.1418,73.7674,21.82,25,0,1.35,PK,1682276313
99,say,13.1007,2.3689,39.31,6,98,4.08,NE,1682276313
100,ust'-katav,54.9369,58.1656,8.89,79,41,2.29,RU,1682276314
101,qaqortoq,60.7167,-46.0333,2.45,75,100,1.61,GL,1682276314
102,haiku-pauwela,20.9219,-156.3051,25.65,69,0,1.34,US,1682276314
103,colonia,50.9333,6.95,13.87,80,20,4.63,DE,1682276315
104,lauro de freitas,-12.8944,-38.3272,27.01,78,75,6.17,BR,1682276315
105,kolasib,24.2333,92.7,18.78,93,100,0.49,IN,1682276316
106,sale,34.0389,-6.8166,20.91,77,94,4.12,MA,1682276317
107,faranah,10.0404,-10.7434,32.25,17,9,1.48,GN,1682276317
108,maryville,35.7565,-83.9705,14.51,58,100,4.12,US,1682276264
109,invercargill,-46.4,168.35,8.05,73,84,7.15,NZ,1682275843
110,hithadhoo,-0.6,73.0833,29.13,73,93,2.87,MV,1682275930
111,badger,64.8,-147.5333,-10.0,52,75,7.72,US,1682276320
112,ola,59.5833,151.2833,-0.43,69,85,8.08,RU,1682276321
113,shohimardon,39.9839,71.8028,10.43,36,51,3.65,UZ,1682276321
114,ratchaburi,13.5833,99.5333,25.68,76,100,0.89,TH,1682276322
115,isangel,-19.55,169.2667,25.01,82,84,2.38,VU,1682275967
116,khandyga,62.6667,135.6,-9.06,99,100,1.27,RU,1682276051
117,murzuq,25.9155,13.9184,26.26,16,66,3.4,LY,1682276323
118,hasaki,35.7333,140.8333,11.79,76,100,7.46,JP,1682275988
119,nouadhibou,20.931,-17.0347,22.99,68,0,8.75,MR,1682275988
120,tolanaro,-25.0319,46.9987,26.04,78,20,5.14,MG,1682276324
121,jutai,-5.1833,-68.9,26.54,81,90,1.57,BR,1682276325
122,akureyri,65.6835,-18.0878,4.96,42,0,4.12,IS,1682276325
123,bahia blanca,-38.7196,-62.2724,24.9,34,0,1.79,AR,1682276325
124,port alfred,-33.5906,26.891,19.54,78,100,4.95,ZA,1682275928
125,bethel,41.3712,-73.414,16.68,78,100,3.09,US,1682275880
126,fort bragg,35.139,-79.006,23.79,33,0,5.14,US,1682276327
127,pandan,14.0453,124.1694,26.38,85,95,4.96,PH,1682276327
128,whitehorse,60.7161,-135.0538,5.57,80,100,4.12,CA,1682275939
129,dudinka,69.4058,86.1778,1.46,87,100,6.56,RU,1682276329
130,mahina,-17.5065,-149.489,26.87,83,75,1.54,PF,1682276330
131,vryheid,-27.7695,30.7917,12.91,66,1,1.9,ZA,1682276330
132,san patricio,28.017,-97.5169,18.93,93,100,8.27,US,1682276012
133,bage,-31.3314,-54.1069,24.88,44,0,4.12,BR,1682276331
134,chonchi,-42.6128,-73.8092,14.56,65,100,0.76,CL,1682276331
135,hadejia,12.4498,10.0444,34.27,21,18,2.66,NG,1682276332
136,darovskoy,58.77,47.9564,9.57,66,100,1.84,RU,1682276332
137,"laikit, laikit ii (dimembe)",1.4792,124.9735,21.47,100,40,1.03,ID,1682276333
138,shiloh,38.5614,-89.8973,13.32,38,75,5.66,US,1682276333
139,la rinconada,37.4873,-5.9826,30.1,20,0,1.54,ES,1682276334
140,makokou,0.5738,12.8642,22.59,88,10,1.07,GA,1682276334
141,pirallahi,40.4723,50.333,14.08,80,100,6.81,AZ,1682276335
142,soio,-6.1349,12.3689,26.09,89,100,2.54,AO,1682276336
143,queenstown,-31.8976,26.8753,15.78,55,100,0.96,ZA,1682276337
144,smithers,54.7804,-127.1743,6.18,87,75,2.06,CA,1682276067
145,labuan,5.2767,115.2417,28.2,83,20,1.54,MY,1682276338
146,altoona,40.5187,-78.3947,9.81,60,82,2.24,US,1682276339
147,clodomira,-27.5744,-64.1311,15.24,95,100,4.0,AR,1682276339
148,achinsk,56.2694,90.4993,1.73,69,100,2.7,RU,1682276340
149,cidreira,-30.1811,-50.2056,22.52,72,45,5.44,BR,1682276005
150,nam som,17.7704,102.1895,27.83,58,100,0.34,TH,1682276340
151,caico,-6.4583,-37.0978,33.33,37,73,9.58,BR,1682276341
152,levuka,50.1834,-105.4011,4.84,76,13,1.83,CA,1682276341
153,aasiaat,68.7098,-52.8699,0.61,99,100,4.49,GL,1682276342
154,antsiranana,-12.2787,49.2917,24.59,93,6,3.38,MG,1682276342
155,paciran,-6.8767,112.3761,26.02,85,96,3.59,ID,1682276343
156,hirara,24.8,125.2833,21.15,88,100,2.06,JP,1682276343
157,livingston,55.9029,-3.5226,8.8,68,75,4.12,GB,1682276344
158,kerikeri,-35.2268,173.9474,11.62,92,15,3.58,NZ,1682276345
159,rocky mountain house,52.3668,-114.9188,10.06,46,100,4.12,CA,1682276346
160,ancud,-41.8697,-73.8203,13.23,64,100,1.02,CL,1682276049
161,sandnessjoen,66.0217,12.6316,3.14,63,20,6.17,NO,1682276347
162,port elizabeth,-33.918,25.5701,22.16,63,0,1.03,ZA,1682275948
163,kayangel,8.0823,134.7173,27.96,73,80,3.37,PW,1682276348
164,pervomayskoye,43.919,46.7102,11.0,87,100,3.02,RU,1682276349
165,brookings,44.3114,-96.7984,6.73,43,75,6.69,US,1682276273
166,papao,-17.75,-149.55,26.82,87,99,8.07,PF,1682276349
167,ifrane,33.3333,-5.25,13.99,62,50,2.68,MA,1682276350
168,awjilah,29.1081,21.2869,27.72,18,0,4.45,LY,1682276351
169,horta,38.5333,-28.6333,17.8,95,75,2.57,PT,1682276351
170,spokoynaya,44.2468,41.4015,8.05,90,91,1.21,RU,1682276352
171,usinsk,65.9939,57.5281,-6.56,89,95,5.43,RU,1682276352
172,pauini,-7.7136,-66.9764,27.86,70,100,1.32,BR,1682276353
173,seia,40.4151,-7.7086,16.02,72,87,1.34,PT,1682276353
174,lompoc,34.6391,-120.4579,21.03,73,2,3.58,US,1682275955
175,fort-shevchenko,44.5086,50.263,14.9,65,100,10.44,KZ,1682276355
176,carnarvon,-24.8667,113.6333,22.28,75,100,6.04,AU,1682275953
177,quellon,-43.1167,-73.6167,14.14,67,0,2.57,CL,1682276356
178,margaret river,-33.95,115.0667,13.67,86,100,9.79,AU,1682276357
179,taulaga,-11.0553,-171.0883,28.21,75,6,3.57,AS,1682276357
180,puerto ayora,-0.7393,-90.3518,29.98,87,100,4.02,EC,1682275963
181,beidao,34.5686,105.8933,4.16,91,86,1.67,CN,1682276359
182,nanning,22.8167,108.3167,26.25,92,69,4.16,CN,1682276359
183,nar'yan-mar,67.6713,53.087,-7.21,91,26,6.43,RU,1682276359
184,holualoa,19.6228,-155.9522,24.2,84,100,3.09,US,1682276360
185,keflavik,64.0049,-22.5624,6.95,65,75,2.57,IS,1682276361
186,ust-tsilma,65.441,52.1498,-7.89,91,12,2.69,RU,1682276019
187,cabo san lucas,22.8909,-109.9124,33.61,14,0,4.12,MX,1682275933
188,vila velha,-20.3297,-40.2925,24.97,83,75,2.57,BR,1682276362
189,mount gambier,-37.8333,140.7667,10.78,85,0,2.16,AU,1682275968
190,egirdir,37.8746,30.8504,9.6,82,99,1.15,TR,1682276364
191,tindouf,27.6711,-8.1474,29.06,12,6,3.07,DZ,1682276365
192,island harbour,50.724,-1.2758,12.18,76,96,3.13,GB,1682276365
193,pizarro,4.9533,-77.366,28.65,72,100,3.34,CO,1682276366
194,shenjiamen,29.9576,122.298,13.96,93,100,5.0,CN,1682276366
195,isla mujeres,21.2311,-86.731,30.09,64,1,4.99,MX,1682275967
196,baukau,51.5526,7.2042,12.73,87,100,1.34,DE,1682276367
197,tazovsky,67.4667,78.7,0.3,98,100,6.84,RU,1682276367
198,nova sintra,14.8667,-24.7167,20.08,75,1,10.39,CV,1682276368
199,abrud,46.2667,23.0667,6.85,91,64,0.81,RO,1682276368
200,kasama,-10.2129,31.1808,17.02,96,100,1.56,ZM,1682276369
201,salalah,17.0151,54.0924,29.05,74,20,2.57,OM,1682275983
202,hamilton,39.1834,-84.5333,8.94,57,100,5.14,US,1682276370
203,vilyuchinsk,52.9306,158.4028,-0.85,80,100,4.63,RU,1682276370
204,lisakovsk,52.5369,62.4936,10.02,66,99,4.79,KZ,1682276371
205,katsuura,35.1333,140.3,12.24,75,100,4.45,JP,1682275963
206,massawa,15.6097,39.45,30.36,71,57,1.42,ER,1682276372
207,yumaguzino,52.9041,56.3933,7.92,66,4,1.33,RU,1682276373
208,olonkinbyen,70.9221,-8.7187,-4.35,59,18,6.35,SJ,1682276374
209,upington,-28.4478,21.2561,21.21,17,0,0.51,ZA,1682276374
210,klaksvik,62.2266,-6.589,2.51,67,100,11.62,FO,1682275958
211,plouzane,48.3833,-4.6167,11.1,71,40,7.72,FR,1682276375
212,constantia,44.1833,28.65,10.39,74,11,3.15,RO,1682276376
213,ribeira brava,32.65,-17.0667,21.11,75,100,1.11,PT,1682276376
214,northam,51.0333,-4.2167,10.77,79,16,6.59,GB,1682275953
215,saldanha,-33.0117,17.9442,16.03,96,100,5.42,ZA,1682275936
216,chhibramau,27.1483,79.4979,25.54,26,99,0.99,IN,1682276377
217,at taraf,25.3628,49.725,28.3,29,18,3.34,SA,1682276378
218,bayan,46.0833,127.4,0.83,24,0,2.87,CN,1682276378
219,cabedelo,-6.9811,-34.8339,30.37,73,77,5.77,BR,1682276026
220,adrar,20.5022,-10.0711,29.34,16,0,3.91,MR,1682275983
221,brandon,27.9378,-82.2859,31.92,54,75,6.17,US,1682276195
222,lugait,8.3411,124.2592,25.83,86,53,0.82,PH,1682276380
223,rio grande,-32.035,-52.0986,25.06,72,100,5.15,BR,1682276381
224,susuman,62.7833,148.1667,-8.6,94,99,3.35,RU,1682276382
225,cooper's town,26.8667,-77.5167,23.93,72,0,2.01,BS,1682276383
226,qarqaraly,49.4058,75.4742,7.38,30,81,4.76,KZ,1682276384
227,yuzhno-kurilsk,44.0306,145.8556,1.41,81,65,6.4,RU,1682276384
228,jamaame,0.0697,42.745,27.47,76,100,2.49,SO,1682276385
229,conception bay south,47.4999,-52.9981,4.75,95,100,8.58,CA,1682276385
230,kununurra,-15.7667,128.7333,16.99,94,5,0.0,AU,1682275960
231,ghanzi,-21.5667,21.7833,24.87,31,26,2.78,BW,1682276386
232,touros,-5.1989,-35.4608,28.41,70,49,5.61,BR,1682275995
233,timbiqui,2.7717,-77.6654,31.02,60,47,2.65,CO,1682276387
234,grand falls-windsor,48.9332,-55.6649,3.61,93,100,3.13,CA,1682276262
235,zalegoshch',52.9008,36.8869,12.6,58,93,2.8,RU,1682276388
236,singtam,27.2333,88.5,18.8,87,41,0.81,IN,1682276389
237,na wa,17.4897,104.1006,25.22,78,40,1.81,TH,1682276390
238,puerto leguizamo,-0.1934,-74.7819,24.77,91,100,1.45,CO,1682275990
239,canico,32.6333,-16.85,21.11,77,20,2.06,PT,1682276391
240,nyagan,62.1406,65.3936,-3.0,88,100,4.87,RU,1682276392
241,kristiansund,63.1115,7.732,4.03,87,75,8.75,NO,1682276392
242,tannum sands,-23.9504,151.3693,20.94,64,17,5.14,AU,1682276393
243,kiunga,-6.1219,141.2906,21.81,100,100,0.74,PG,1682276393
244,nuuk,64.1835,-51.7216,4.34,75,75,2.06,GL,1682275949
245,east london,-33.0153,27.9116,20.52,73,0,1.54,ZA,1682275937
246,dakhla,23.6848,-15.958,21.01,78,0,9.26,EH,1682276394
247,luau,-10.7073,22.2247,20.38,88,100,1.26,AO,1682276395
248,hammerfest,70.6634,23.6821,-1.75,86,75,0.0,NO,1682276031
249,port arthur,38.8,121.2667,11.12,41,100,3.01,CN,1682276396
250,dwarka,22.2394,68.9678,26.54,82,9,5.88,IN,1682276396
251,khanty-mansiysk,61.0042,69.0019,4.06,100,40,3.13,RU,1682276396
252,okha,53.5739,142.9478,-2.66,88,70,7.55,RU,1682276397
253,tralee,52.2704,-9.7026,8.89,84,13,3.58,IE,1682276398
254,namibe,-15.1961,12.1522,24.42,69,91,6.86,AO,1682276398
255,mendoza,-32.8908,-68.8272,22.74,38,40,2.57,AR,1682276194
256,tahe,52.3333,124.7333,-5.5,73,1,1.77,CN,1682276400
257,yulinshi,38.2906,109.7494,3.23,86,75,3.72,CN,1682276401
258,souillac,-20.5167,57.5167,26.21,83,75,1.54,MU,1682275969
259,betare oya,5.6,14.0833,22.36,74,100,1.92,CM,1682276402
260,okhotsk,59.3833,143.3,-2.39,72,100,7.32,RU,1682276403
261,taltal,-25.4,-70.4833,19.77,73,14,2.57,CL,1682276404
262,sitangkai,4.6628,119.3928,28.66,73,33,3.25,PH,1682276405
263,nhamunda,-2.1861,-56.7131,28.68,75,100,0.69,BR,1682276406
264,inongo,-1.95,18.2667,22.32,90,99,1.32,CD,1682276407
265,belvedere marittimo,39.6179,15.8617,14.46,72,10,1.09,IT,1682276411
266,mogadishu,2.0371,45.3438,28.63,73,100,3.31,SO,1682276389
267,prince rupert,54.3161,-130.3201,7.05,87,100,7.72,CA,1682275973
268,kolhapur,16.7,74.2167,22.66,73,8,2.29,IN,1682276127
269,konstantinovka,49.6167,127.9833,0.54,50,0,3.42,RU,1682276413
270,peniche,39.3558,-9.3811,18.38,87,8,4.44,PT,1682276414
271,kristiansand,58.1467,7.9956,9.36,84,0,3.6,NO,1682276415
272,fukuecho,32.6881,128.8419,15.9,69,100,8.09,JP,1682276417
273,sisimiut,66.9395,-53.6735,0.9,100,100,4.32,GL,1682276418
274,salym,60.0625,71.4789,2.4,100,100,0.95,RU,1682276418
275,as sulayyil,20.4607,45.5779,26.14,58,100,12.15,SA,1682276419
276,playa del ingles,27.7567,-15.5787,20.86,71,89,1.34,ES,1682276409
277,al miqdadiyah,33.9786,44.9369,28.4,28,81,4.13,IQ,1682276420
278,urangan,-25.3,152.9,22.8,66,0,10.98,AU,1682276420
279,sao joao da barra,-21.6403,-41.0511,25.05,66,21,5.69,BR,1682275911
280,encheng,22.1839,112.3026,23.82,96,44,1.49,CN,1682276421
281,vargashi,55.3556,65.8467,6.81,85,29,4.49,RU,1682276422
282,la passe,45.5549,-0.8967,14.13,91,35,8.06,FR,1682276423
283,cove,7.221,2.3402,27.35,76,100,3.95,BJ,1682276424
284,marquette,46.5333,-87.6335,1.25,65,100,3.58,US,1682276426
285,vila franca do campo,37.7167,-25.4333,18.23,93,71,6.68,PT,1682276001
286,itamaraca,-7.7478,-34.8256,29.03,68,82,4.45,BR,1682276427
287,kintampo,8.0563,-1.7306,26.6,66,87,0.64,GH,1682276427
288,eregli,37.5133,34.0467,10.44,75,92,3.61,TR,1682276428
289,vorkuta,67.5,64.0,-7.59,85,100,6.8,RU,1682276428
290,al fahahil,29.0825,48.1303,28.27,86,4,4.18,KW,1682276429
291,sitka,57.0531,-135.33,7.94,81,100,0.0,US,1682275970
292,ziro,27.6333,93.8333,8.79,97,100,0.78,IN,1682276430
293,zeerust,-25.5369,26.0751,19.03,16,22,2.8,ZA,1682276430
294,acapulco de juarez,16.8634,-99.8901,30.5,61,59,4.32,MX,1682276255
295,el granada,37.5027,-122.4694,19.7,90,100,8.23,US,1682276433
296,corn island,12.1694,-83.0418,27.19,68,100,2.4,NI,1682276435
297,burang,30.25,81.1667,-8.35,83,100,0.84,CN,1682276435
298,ximeicun,24.9639,118.3794,19.38,90,99,0.79,CN,1682276436
299,savelugu,9.6244,-0.8253,35.84,29,75,3.31,GH,1682276436
300,polysayevo,54.6012,86.2459,3.06,63,100,2.6,RU,1682276437
301,nsanje,-16.92,35.262,21.23,77,55,0.89,MW,1682276439
302,kokopo,-4.352,152.2633,24.19,84,74,1.58,PG,1682276441
303,n'zeto,-7.2312,12.8666,25.81,91,100,2.13,AO,1682276441
304,st. john's,47.5649,-52.7093,4.88,96,100,11.18,CA,1682276279
305,tsiombe,-25.3,45.4833,21.85,83,100,1.9,MG,1682276443
306,taybad,34.74,60.7756,22.45,23,100,7.36,IR,1682276444
307,lorengau,-2.0226,147.2712,27.39,81,100,3.41,PG,1682275968
308,onguday,50.75,86.15,2.5,69,100,1.35,RU,1682276444
309,ambodifotatra,-16.9833,49.85,26.84,79,16,2.28,MG,1682276445
310,flin flon,54.7682,-101.865,3.91,28,20,2.57,CA,1682275750
311,afaahiti,-17.75,-149.2833,25.93,84,100,8.25,PF,1682276446
312,diego de almagro,-26.3667,-70.05,22.49,34,0,5.88,CL,1682276447
313,banda aceh,5.5577,95.3222,27.3,79,72,1.28,ID,1682276447
314,la palma,33.8464,-118.0467,29.42,68,20,4.12,US,1682276449
315,flying fish cove,-10.4217,105.6791,26.97,81,23,6.9,CX,1682276450
316,nova vicosa,-17.8919,-39.3719,25.62,75,89,6.43,BR,1682276450
317,general conesa,-40.1,-64.4333,24.55,31,0,7.29,AR,1682276451
318,vadso,70.0744,29.7487,-0.91,80,40,8.75,NO,1682276452
319,indramayu,-6.3264,108.32,27.29,78,90,3.15,ID,1682276452
320,portland,45.5234,-122.6762,13.33,89,100,1.54,US,1682276220
321,yerofey pavlovich,53.9667,121.9667,-7.24,86,14,1.5,RU,1682276453
322,mieres,43.25,-5.7667,12.53,97,100,0.82,ES,1682276454
323,miles city,46.4083,-105.8406,6.54,42,0,2.57,US,1682276056
324,idfu,24.9803,32.8747,30.52,19,99,8.45,EG,1682276454
325,curaca,-8.9903,-39.9094,34.58,26,100,5.31,BR,1682276455
326,chokwe,-24.5333,32.9833,20.97,96,1,2.53,MZ,1682276455
327,naze,28.3667,129.4833,20.51,81,31,6.66,JP,1682276036
328,lesnoy,57.6198,63.0784,7.2,75,97,4.03,RU,1682276456
329,lerwick,60.1545,-1.1494,5.0,67,100,13.67,GB,1682276457
330,ilha de mocambique,-15.0342,40.7358,26.46,74,5,4.35,MZ,1682276458
331,gifford,27.6753,-80.4092,28.91,70,34,4.02,US,1682276400
332,knyaze-volkonskoye,48.4642,135.4567,2.19,77,100,5.54,RU,1682276459
333,bonthe,7.5264,-12.505,28.1,73,5,4.81,SL,1682276460
334,coalisland,54.5418,-6.7017,10.24,77,78,3.93,GB,1682276460
335,hilo,19.7297,-155.09,26.27,80,40,3.6,US,1682275940
336,mount isa,-20.7333,139.5,22.87,40,97,2.06,AU,1682276068
337,yanykurgan,43.915,67.2481,21.12,25,99,4.86,KZ,1682276462
338,filadelfia,39.9523,-75.1638,20.66,38,40,5.14,US,1682276213
339,kuhdasht,33.535,47.6061,14.99,60,20,1.91,IR,1682276463
340,port saint john's,-31.6229,29.5448,19.91,76,19,3.8,ZA,1682276463
341,luderitz,-26.6481,15.1594,18.59,47,100,3.83,NA,1682275967
342,sing buri,14.85,100.2333,30.05,81,18,2.54,TH,1682276464
343,rikaze,29.25,88.8833,4.68,22,100,1.1,CN,1682276464
344,kapuskasing,49.4169,-82.4331,0.05,80,100,3.6,CA,1682276374
345,kish,26.5578,54.0194,23.15,83,100,4.12,IR,1682276465
346,keetmanshoop,-26.5833,18.1333,25.51,13,97,1.54,NA,1682276380
347,gazojak,41.1875,61.4036,25.07,21,100,9.09,TM,1682276467
348,fremantle,-32.05,115.7667,19.58,76,95,3.6,AU,1682276270
349,sovetskaya gavan',48.9723,140.2878,-2.1,93,93,2.04,RU,1682276468
350,temiskaming shores,47.4938,-79.7153,6.89,89,100,3.46,CA,1682276469
351,udachny,66.4167,112.4,-12.19,98,100,0.91,RU,1682276469
352,hadibu,12.65,54.0333,28.27,76,14,0.71,YE,1682276470
353,mwinilunga,-11.7358,24.4293,20.61,75,100,1.33,ZM,1682276470
354,mormugao,15.4,73.8,25.96,75,4,5.8,IN,1682276471
355,douglas,41.3,-96.167,11.45,39,75,4.12,US,1682276471
356,san jose de jachal,-30.2406,-68.7469,13.35,68,68,3.12,AR,1682276472
357,hpa-an,16.8906,97.6333,27.33,80,9,1.27,MM,1682276472
358,madera acres,37.0191,-120.0668,25.48,48,97,5.14,US,1682276473
359,miquelon,47.0975,-56.3814,10.0,88,95,7.39,PM,1682276473
360,woolgoolga,-30.1106,153.2007,17.8,73,51,7.02,AU,1682276474
361,east ballina,-28.8667,153.5833,21.94,60,73,8.35,AU,1682276475
362,port-vila,-17.7338,168.3219,21.78,94,20,0.51,VU,1682276476
363,saacow,1.6279,42.4407,28.87,64,100,2.6,SO,1682276476
364,xichang,27.8964,102.2634,14.45,64,27,1.17,CN,1682276477
365,orangeburg,33.4918,-80.8557,25.46,28,28,3.13,US,1682276478
366,ujae,8.9322,165.7642,27.66,85,99,9.35,MH,1682276478
367,preston,53.7667,-2.7167,10.94,80,96,2.84,GB,1682276478
368,labrador city,52.9463,-66.9114,9.95,40,75,5.14,CA,1682276479
369,deir ez-zor,35.3359,40.1408,24.79,31,100,3.94,SY,1682276479
370,ishigaki,24.3448,124.1572,23.07,94,75,2.06,JP,1682276480
371,xiaoshi,41.2971,124.1209,3.6,21,100,0.65,CN,1682276480
372,amarillo,35.222,-101.8313,14.57,34,0,6.17,US,1682276247
373,shimoda,34.6667,138.95,11.17,65,85,6.56,JP,1682276482
374,ulubey,40.8721,37.7588,7.79,100,100,0.81,TR,1682276482
375,chinchilla,-26.75,150.6333,14.32,87,0,4.98,AU,1682276483
376,kingston,17.997,-76.7936,31.25,63,85,2.24,JM,1682276428
377,enewetak,11.3474,162.3373,27.04,82,91,8.51,MH,1682276485
378,nemuro,43.3236,145.575,1.47,82,51,5.39,JP,1682276485
379,tadine,-21.55,167.8833,24.41,80,89,1.63,NC,1682276486
380,la ronge,55.1001,-105.2842,8.14,21,75,4.63,CA,1682276486
381,muisne,0.6,-80.0333,28.52,70,100,3.03,EC,1682276487
382,badou,7.5833,0.6,23.54,92,100,1.57,TG,1682276487
383,bay harbor,30.1471,-85.6146,28.85,27,0,3.13,US,1682276488
384,gulf shores,30.246,-87.7008,26.99,41,0,5.14,US,1682276467
385,nyurba,63.2842,118.3319,-16.31,100,95,1.29,RU,1682276050
386,voluntari,44.4667,26.1333,16.11,61,0,2.06,RO,1682276489
387,vanino,49.0869,140.2543,-2.5,93,95,1.67,RU,1682276490
388,cimislia,46.52,28.7842,11.08,75,98,3.04,MD,1682276490
389,ivolginsk,51.7492,107.2837,-1.19,51,100,2.0,RU,1682276491
390,jiazi,22.8779,116.067,22.05,92,100,4.2,CN,1682276493
391,tofol,5.3248,163.0078,28.14,79,93,6.09,FM,1682276493
392,brisas de zicatela,15.8369,-97.0419,29.88,69,53,3.83,MX,1682276494
393,siwa oasis,29.2041,25.5195,26.87,23,0,4.63,EG,1682276495
394,utrik,11.2278,169.8474,26.91,81,40,10.1,MH,1682276495
395,filey,54.21,-0.2892,8.83,86,99,1.34,GB,1682276495
396,stanley,54.868,-1.6985,7.1,86,100,6.76,GB,1682276496
397,farsan,32.2569,50.561,13.02,53,88,1.31,IR,1682276496
398,comodoro rivadavia,-45.8667,-67.5,20.92,30,0,7.2,AR,1682276012
399,rehoboth,-23.3167,17.0833,23.27,34,84,2.13,NA,1682275981
400,tamanrasset,22.785,5.5228,25.95,11,0,1.03,DZ,1682276498
401,bardai,11.65,7.2333,27.52,52,100,7.12,NG,1682276499
402,great bend,38.3645,-98.7648,16.69,22,20,3.6,US,1682276499
403,neryungri,56.6709,124.6491,-12.78,96,99,1.51,RU,1682276500
404,richards bay,-28.783,32.0377,19.51,81,0,0.98,ZA,1682276500
405,manismata,-2.4667,111.0333,23.87,98,100,0.7,ID,1682276501
406,semirom,31.4167,51.5667,12.29,47,80,0.68,IR,1682276502
407,hailar,49.2,119.7,0.28,22,100,3.05,CN,1682276502
408,luanda,-8.8368,13.2343,28.0,78,40,4.63,AO,1682275973
409,fomboni,-12.28,43.7425,28.17,77,100,3.78,KM,1682276503
410,marshfield,44.6689,-90.1718,4.69,43,100,4.25,US,1682276504
411,guerrero negro,27.9769,-114.0611,19.92,61,22,5.19,MX,1682275960
412,harstad,68.799,16.5293,-0.34,93,43,2.24,NO,1682276505
413,afua,-0.1567,-50.3867,28.33,78,99,1.23,BR,1682276505
414,choconta,5.1447,-73.6858,15.46,80,100,0.27,CO,1682276506
415,olinda,-8.0089,-34.8553,28.85,65,40,6.17,BR,1682276452
416,praia da vitoria,38.7333,-27.0667,20.14,88,75,8.83,PT,1682275986
417,san antonio de pale,-1.4014,5.6325,28.03,72,57,1.2,GQ,1682276507
418,ahar,38.4774,47.0699,12.88,61,97,1.06,IR,1682276507
419,pangody,65.85,74.4859,0.89,96,100,7.41,RU,1682276508
420,leh,34.1667,77.5833,-5.66,37,0,2.16,IN,1682276509
421,fort mcmurray,56.7268,-111.381,10.77,29,0,9.26,CA,1682276321
422,kuanda,56.3161,116.0806,-5.07,75,100,3.83,RU,1682276510
423,manicore,-5.8092,-61.3003,30.97,62,75,2.06,BR,1682276511
424,mandera,3.9366,41.867,29.11,63,100,2.02,KE,1682276511
425,strugi-krasnyye,58.2675,29.1114,12.51,62,78,3.43,RU,1682276512
426,polokwane,-23.9045,29.4688,18.47,34,0,1.03,ZA,1682276512
427,howrah,22.5892,88.3103,26.0,78,40,0.0,IN,1682276513
428,kainantu,-6.2887,145.8655,14.36,95,100,0.62,PG,1682276513
429,darwha,20.3167,77.7667,30.09,32,18,2.12,IN,1682276514
430,laramie,41.3114,-105.5911,6.72,36,40,3.09,US,1682276231
431,buka,40.8108,69.1986,19.16,31,96,2.67,UZ,1682276515
432,mossel bay,-34.1831,22.146,19.96,79,100,1.7,ZA,1682276515
433,lumberton,34.6182,-79.0086,24.39,37,0,2.57,US,1682276277
434,alamar,23.1583,-82.2769,30.18,65,0,5.71,CU,1682276517
435,atar,20.5169,-13.0499,34.03,20,0,5.14,MR,1682276013
436,imperia,43.9667,7.7833,12.88,83,100,2.33,IT,1682276518
437,areia branca,-4.9561,-37.1369,33.11,65,96,6.3,BR,1682276512
438,weno,7.4515,151.8468,27.97,89,75,1.54,FM,1682276520
439,castelli,-25.9468,-60.6195,29.19,30,0,2.34,AR,1682276521
440,zamora,-4.0692,-78.9567,22.58,90,100,0.85,EC,1682276430
441,plettenberg bay,-34.0527,23.3716,18.9,72,93,0.84,ZA,1682276009
442,al ghayzah,16.2079,52.176,28.27,69,0,5.53,YE,1682276522
443,west valley,46.5921,-120.6051,17.31,69,100,2.06,US,1682276522
444,kralendijk,12.15,-68.2667,26.33,80,100,3.18,BQ,1682276523
445,san sebastian de la gomera,28.0916,-17.1133,22.2,73,75,2.06,ES,1682276319
446,coracora,-15.0333,-73.7833,15.96,59,20,4.96,PE,1682276524
447,dolisie,-4.1997,12.6739,24.29,90,100,2.23,CG,1682276524
448,polyarnyy,69.1989,33.4478,-2.36,84,97,10.01,RU,1682276525
449,kavaratti,10.5669,72.642,28.62,72,100,5.19,IN,1682276027
450,vel'sk,61.0701,42.0983,4.15,89,100,1.49,RU,1682276527
451,antonio enes,-16.2325,39.9086,24.56,78,7,2.54,MZ,1682276527
452,north bend,43.4065,-124.2243,11.25,82,100,2.06,US,1682276431
453,mersing,2.4312,103.8405,25.95,94,20,2.57,MY,1682276529
454,sciacca,37.5082,13.0881,15.36,75,100,1.81,IT,1682276529
455,bueng kan,18.363,103.6519,25.87,71,88,0.81,TH,1682276530
456,newman,37.3138,-121.0208,25.03,55,73,1.34,US,1682276530
457,labytnangi,66.6572,66.4183,-4.18,79,100,7.69,RU,1682276531
458,la baneza,42.3003,-5.8977,13.89,70,100,2.64,ES,1682276532
459,moranbah,-22.0016,148.0466,16.51,86,7,7.39,AU,1682276532
460,tahoua,14.8888,5.2692,37.99,9,0,2.06,NE,1682276533
461,dalandzadgad,43.5708,104.425,8.82,33,100,7.33,MN,1682276533
462,cascais,38.6979,-9.4215,20.92,75,20,7.72,PT,1682276534
463,rustington,50.8103,-0.5067,12.33,77,100,6.76,GB,1682276535
464,stephenville,32.2207,-98.2023,9.96,93,100,6.17,US,1682276310
465,runing,33.0011,114.3542,8.52,96,100,5.56,CN,1682276536
466,taoudenni,22.6783,-3.9836,33.04,8,0,2.35,ML,1682275953
467,peruibe,-24.32,-46.9983,23.7,75,29,2.67,BR,1682276514
468,beroroha,-21.6667,45.1667,22.61,71,0,1.64,MG,1682276538
469,port-gentil,-0.7193,8.7815,27.98,78,20,4.12,GA,1682275977
470,motril,36.7507,-3.5179,18.53,66,0,1.04,ES,1682276327
471,khovd,48.0056,91.6419,1.6,43,0,1.45,MN,1682276539
472,leibnitz,46.7816,15.5384,16.21,57,100,2.11,AT,1682276540
473,klamath falls,42.2249,-121.7817,14.98,53,75,5.14,US,1682276540
474,mpika,-11.8343,31.4529,16.69,90,100,1.26,ZM,1682276541
475,novodvinsk,64.4165,40.8122,-4.14,88,95,0.58,RU,1682276541
476,wau,7.7029,27.9953,26.91,63,55,3.07,SS,1682276542
477,shadegan,30.6497,48.6647,27.97,19,0,2.34,IR,1682276542
478,yeniseysk,58.4497,92.1703,-0.51,92,100,1.73,RU,1682276543
479,strezhevoy,60.7333,77.5889,3.32,99,100,5.09,RU,1682276543
480,trevelin,-43.0858,-71.4639,14.71,34,97,0.69,AR,1682276546
481,itacare,-14.2775,-38.9967,24.69,90,5,5.16,BR,1682276546
482,mount pearl,47.5166,-52.7813,4.42,96,100,9.26,CA,1682276480
483,chegdomyn,51.1167,133.0167,-2.21,96,100,1.63,RU,1682276547
484,miura,35.14,139.6192,12.99,52,100,11.04,JP,1682276547
485,ixtapa,20.7,-105.2,33.81,24,82,3.85,MX,1682276548
486,massakory,12.996,15.7293,34.73,20,100,3.43,TD,1682276548
487,champerico,14.3,-91.9167,34.3,57,18,5.46,GT,1682276549
488,al jawf,29.5,38.75,26.74,16,98,3.31,SA,1682276549
489,menaka,15.9182,2.4022,34.7,10,55,3.6,ML,1682276550
490,dul'durga,50.6761,113.5931,-0.64,45,100,3.16,RU,1682276550
491,ganta,7.3022,-8.5308,25.9,77,87,1.66,LR,1682276550
492,zhelezinka,53.54,75.3072,9.95,53,37,4.66,KZ,1682276551
493,sierra grande,-41.606,-65.3557,25.5,28,4,4.92,AR,1682276552
494,san luis rio colorado,32.4631,-114.7767,35.5,12,0,5.49,MX,1682276553
495,kurumkan,54.3,110.3,-6.44,54,0,1.85,RU,1682276553
496,el calafate,-50.3408,-72.2768,9.33,80,69,2.38,AR,1682276554
497,kolonia,50.9333,6.95,13.87,80,20,4.63,DE,1682276555
498,kruisfontein,-34.0033,24.7314,19.38,63,99,1.11,ZA,1682276016
499,beau vallon,-20.4189,57.6953,26.13,83,75,1.54,MU,1682276555
500,palikir - national government center,6.9248,158.1611,23.41,94,100,0.0,FM,1682276556
501,chos malal,-37.3781,-70.2709,22.56,27,0,2.81,AR,1682276556
502,wuwei,37.9281,102.6414,5.35,73,100,0.91,CN,1682276557
503,retreat,38.8245,-85.8533,8.88,43,100,2.24,US,1682276558
504,orkney,-26.9802,26.6727,17.73,23,11,1.21,ZA,1682276558
505,singaraja,-8.112,115.0882,26.49,85,69,2.55,ID,1682276558
506,luganville,-15.5333,167.1667,25.99,83,38,1.79,VU,1682275966
507,maebaru-chuo,33.55,130.2,14.84,64,98,3.61,JP,1682276559
508,port augusta,-32.5,137.7667,16.1,53,0,1.81,AU,1682276560
509,liwale,-9.7667,37.9333,21.11,98,13,1.41,TZ,1682276561
510,laojunmiao,39.8333,97.7333,6.61,45,100,4.69,CN,1682276562
511,khowy,38.5503,44.9521,16.72,38,100,2.23,IR,1682276563
512,araban,37.4267,37.689,15.21,69,0,3.19,TR,1682276563
513,salinas,36.6777,-121.6555,19.24,78,100,6.17,US,1682276443
514,sodra sandby,56.5667,16.6167,10.92,92,100,3.41,SE,1682276564
515,tazacorte,28.629,-17.9293,19.54,90,75,3.6,ES,1682276565
516,tinajo,29.0788,-13.7081,20.49,60,20,9.26,ES,1682276565
517,saint-philippe,-21.3585,55.7679,25.77,77,100,3.14,RE,1682276566
518,sirte,31.2089,16.5887,17.58,85,100,6.72,LY,1682276566
519,san felice circeo,41.2372,13.0942,16.14,75,62,3.59,IT,1682276567
520,ouro preto do oeste,-10.7481,-62.2158,26.5,78,99,1.46,BR,1682276567
521,tawau,4.2498,117.8871,24.07,94,9,1.34,MY,1682276568
522,baiti,13.745,-14.7482,38.16,13,5,3.06,SN,1682276568
523,humaita,-7.5061,-63.0208,29.85,64,68,0.83,BR,1682276569
524,guajara mirim,-10.7828,-65.3394,31.09,66,40,2.57,BR,1682276570
525,laguna,38.421,-121.4238,24.52,57,0,1.54,US,1682276322
526,taro,-8.3862,115.28,24.0,96,74,0.53,ID,1682276572
527,senador jose porfirio,-2.5908,-51.9542,27.2,84,100,1.45,BR,1682276572
528,al kharj,24.155,47.3346,31.32,31,4,2.5,SA,1682276573
529,villa dolores,-31.9459,-65.1896,15.38,67,100,4.47,AR,1682276573
530,coahuayana de hidalgo,18.7,-103.6583,32.25,48,22,3.76,MX,1682276573
531,norrtalje,59.758,18.705,12.1,76,100,2.66,SE,1682276511
532,undurkhaan,47.3194,110.6556,5.19,20,100,1.8,MN,1682276574
533,terme,41.2092,36.9739,10.84,94,100,3.32,TR,1682276575
534,ilebo,-4.3167,20.5833,21.55,99,100,0.84,CD,1682276576
535,spring creek,40.7266,-115.5859,9.52,50,100,2.98,US,1682276576
536,fort st. john,56.2499,-120.8529,3.94,93,100,3.6,CA,1682276427
537,trondheim,63.4305,10.3951,3.05,92,100,0.89,NO,1682276421
538,arfoud,31.4348,-4.2375,23.33,32,99,9.0,MA,1682276577
539,sorong,-0.8833,131.25,26.1,83,77,1.49,ID,1682276578
540,alice springs,-23.7,133.8833,9.75,87,0,2.46,AU,1682276579
541,maputo,-25.9653,32.5892,23.82,81,0,3.6,MZ,1682276410
542,penhalonga,-18.8911,32.6978,16.06,73,89,1.35,ZW,1682276581
543,chaiyaphum,15.75,102.0,28.88,68,83,2.43,TH,1682276581
544,tughyl,47.7252,84.2063,4.59,55,92,4.58,KZ,1682276582
545,mahaddayweyne,2.9726,45.5347,27.81,74,100,4.03,SO,1682276582
546,minas de marcona,-15.2119,-75.1103,23.49,53,2,6.1,PE,1682276582
547,balabac,7.9868,117.0645,28.48,79,39,5.26,PH,1682276583
548,valparaiso,-33.0393,-71.6273,17.22,76,100,3.09,CL,1682276341
549,lospalos,-8.5186,127.0025,22.25,96,98,2.47,TL,1682276584
550,bikenibeu village,1.3673,173.1241,27.98,83,20,2.57,KI,1682276584
551,al bayda',32.7627,21.7551,16.08,68,0,4.82,LY,1682276585
552,whistler,50.1164,-122.9695,6.57,93,100,0.0,CA,1682276303
553,kone,-21.0595,164.8658,22.61,95,71,1.42,NC,1682276587
554,kolpashevo,58.3131,82.9089,3.42,82,100,5.01,RU,1682276588
555,cadale,2.7603,46.3222,28.95,74,100,3.47,SO,1682276588
556,puerto san jose,13.9256,-90.8244,32.24,55,7,5.97,GT,1682276582
557,fabens,31.5023,-106.1586,18.62,24,100,5.33,US,1682276590
558,mbalmayo,3.5167,11.5,26.18,94,100,1.51,CM,1682276590
559,deniliquin,-35.5333,144.9667,13.77,83,0,3.16,AU,1682276591
560,yaren,-0.5472,166.916,28.41,76,100,4.55,NR,1682276591
561,inhambane,-23.865,35.3833,22.29,90,3,3.36,MZ,1682276591
562,timimoun,29.2639,0.231,29.43,15,100,4.78,DZ,1682276592
563,san ignacio,17.1561,-89.0714,34.08,49,0,2.06,BZ,1682276592
564,diffa,13.3154,12.6113,34.16,16,15,3.39,NE,1682276593
565,majene,-3.5403,118.9707,25.99,87,95,2.42,ID,1682276594
566,shortandy,51.7006,70.9994,6.99,74,36,4.49,KZ,1682276594
567,tasova,40.7597,36.3225,10.66,93,100,0.92,TR,1682276595
568,mata-utu,-13.2816,-176.1745,27.06,79,96,4.5,WF,1682276596
569,trincomalee,8.5711,81.2335,28.91,80,100,4.52,LK,1682276597
570,ostersund,63.1792,14.6357,-0.22,100,100,1.54,SE,1682276597
571,nikolayevsk-on-amure,53.1406,140.73,-2.28,85,29,3.52,RU,1682276598
572,bath,51.3779,-2.3591,10.27,84,54,4.25,GB,1682276442
573,freetown,8.484,-13.2299,28.84,74,20,6.17,SL,1682276599
574,tucuma,-0.1833,-50.05,28.57,74,100,1.13,BR,1682276599
575,tual,-5.6667,132.75,27.75,79,87,3.92,ID,1682276600
576,capinopolis,-18.6819,-49.5697,26.79,62,90,2.14,BR,1682276589
577,creel,27.75,-107.6333,21.12,7,46,8.06,MX,1682276601
578,sinop,41.7711,34.8709,7.58,94,100,1.25,TR,1682276552
579,bemidji,47.4736,-94.8803,4.39,39,100,0.0,US,1682276602
580,dhanaula,30.2833,75.5833,24.01,24,100,1.65,IN,1682276602
581,waddan,29.1614,16.139,22.21,45,2,9.97,LY,1682276603
582,petawawa,45.9001,-77.3328,11.55,47,100,3.0,CA,1682276603
583,mexico,15.0646,120.7198,26.84,82,80,1.59,PH,1682275920
584,nuevitas,21.5453,-77.2644,28.61,55,0,4.87,CU,1682276605
585,essaouira,31.5125,-9.77,23.72,56,57,6.69,MA,1682276605
586,jamai,22.2,78.5833,23.15,37,26,2.13,IN,1682276606
587,port macquarie,-31.4333,152.9167,15.5,83,96,4.61,AU,1682276607
588,san clemente del tuyu,-36.3569,-56.7235,19.04,69,90,3.13,AR,1682276607
589,motueka,-41.1333,173.0167,12.28,65,9,4.52,NZ,1682276608
590,qarauyl,48.9451,79.255,9.09,35,94,4.84,KZ,1682276608
